No,lat,lng,name,place_id,price_lvl,rating,type,total_ratings,address
0,45.24394299999999,19.821568,Hotel Gymnas,ChIJacFB7ToQW0cR4tgj3XJy-zI,,4,restaurant,220,"Teodora Pavlovića 28, Novi Sad"
1,45.2586006,19.8457403,Hotel and restaurant Fountain,ChIJocmNkmcQW0cRbWiL3n-lrxs,,4.6,restaurant,1944,"Nikole Pašića 27, Novi Sad"
2,45.2306484,19.8334585,Tourist resort Ribarsko ostrvo,ChIJZ92iVBwQW0cRi68mFMVcymU,,4.5,restaurant,267,"Ribarsko ostrvo 4, Novi Sad"
3,45.25139859999999,19.8418709,Macchiato Kuća,ChIJCybxWKARW0cRZX0VgMmdUJo,2,4.6,restaurant,571,"Železnička 10, Novi Sad"
4,45.2493376,19.8395276,Ananda,ChIJucw0tmoQW0cRhxD0Z1nof5g,2,4.7,restaurant,744,"Petra Drapšina 51, Novi Sad"
5,45.1842073,19.826895,Планинарски дом ПСД Железничар,ChIJJUdG3YUFW0cRoDMous_xBKY,1,4.6,restaurant,96,"Fruškogorski put 366, Sremska Kamenica"
6,45.2546834,19.8460869,Pizzeria Caribic,ChIJc2fm4WgQW0cRu6e-k1iDNPk,2,4,restaurant,1767,"prizemlje i prvi sprat, Modene, Novi Sad"
7,45.2225654,19.8508437,Kordun,ChIJ0YW3JlQFW0cR9MjdL9PF4Mk,2,4.4,restaurant,328,"10A MOŠE PIJADE, 21208, Sremska Kamenica, Južno-bački okrug"
8,45.2607103,19.8333861,Бар „Скеч”,ChIJaUeeHVAQW0cRjfMU6paNjYI,2,4.5,restaurant,1041,"Bulevar kralja Petra I 15, Novi Sad"
9,45.24759299999999,19.8111323,Aviso Fish Market,ChIJ2__d08wRW0cRHk9r29tYku4,2,4.5,restaurant,252,"Futoški put 39, 21000, Novi Sad"
10,45.2391953,19.8359797,Di Garibaldi,ChIJH8Ng_RkQW0cRPP8c9CQ5Txg,2,4.4,restaurant,630,"Narodnog fronta 25, Novi Sad"
11,45.2515447,19.8472095,Palačinkarnica Pinokio NS,ChIJUUWJD2wQW0cR0dNimpyRCbI,,4.6,restaurant,230,"Stražilovska 1, Novi Sad"
12,45.2378192,19.8478478,Bezza Caffe & restoran,ChIJg2ALew8QW0cRHXzMEB-otIQ,2,4.5,restaurant,1898,"Sunčani kej, Novi Sad"
13,45.2576435,19.8333907,De Gusto,ChIJ41PD_EQQW0cR2gRXK9lEfUE,2,4.4,restaurant,1445,"Bulevar oslobođenja 48, Novi Sad"
14,45.2481478,19.8146443,Нови Шампањац,ChIJs_z1-TMQW0cRcrWOkossMrM,2,4.5,restaurant,562,"Futoški put 9, Novi Sad"
15,45.2513277,19.8361383,Harpun - Pečena riba na žaru,ChIJi6fdUEAQW0cRjb4mZbsdtRg,2,4.6,restaurant,313,"Futoška 3, Novi Sad"
16,45.25174749999999,19.8055215,Salatina,ChIJVTTpPWEQW0cRTraWyvpI5ow,,4.7,restaurant,63,"Bulevar Slobodana Jovanovića 10, Novi Sad"
17,45.2480583,19.83983419999999,Kutlača Bar,ChIJr2emJRUQW0cRfUpsXrLCQFE,,4.4,restaurant,238,"Maksima Gorkog br. 2, Novi Sad"
18,45.2485145,19.8338182,Extra Food,ChIJ89koQD8QW0cRrrKG3UoDOMw,,3.7,restaurant,34,"43 BRACE RIBNIKAR, 21000, Novi Sad, Juzno-backi county"
19,45.2422523,19.8365001,Caffe Pizzeria Big Blue,ChIJv_fL_hYQW0cR6Rb_JjaVHPc,2,4.6,restaurant,723,"Bulevar cara Lazara 47, Novi Sad"
20,45.252726,19.838197,Бањалучки ћевап,ChIJ895NlEEQW0cR7wFoVLP5WUw,2,4.5,restaurant,1664,"Gajeva, Novi Sad"
21,45.2547962,19.8625775,Picerija Restoran Square Petrovaradin,ChIJ70WoBHoQW0cRAJR5GIdoqfI,2,4.6,restaurant,432,"Beogradska 19, Petrovaradin"
22,45.26510890000001,19.8367468,Гостиона Миша,ChIJxTuEv1kQW0cRsSM_3u4m-ss,1,4.4,restaurant,245,"Kisačka br. 56, Novi Sad"
23,45.25903150000001,19.8243183,Bubi Grill,ChIJK4GtZE4QW0cRN2CXRy-m53Q,1,4.1,restaurant,457,"Bulevar kralja Petra I 95, Novi Sad"
24,45.2430432,19.8535177,Indeksova Tribina,ChIJv2k3cAwQW0cR9szsRT73u-E,2,4.4,restaurant,822,"Jirečekova bb, Novi Sad"
25,45.25047680000001,19.800724,La Mama,ChIJd-vDzc4RW0cRQ7kjZSwL5XY,2,4.3,restaurant,112,"Partizanskih baza 29, Novi Sad"
26,45.25467689999999,19.8312481,PALAČINKARNICA BAŠ UKUSNO,ChIJoeMdr0YQW0cRA4LUGxw-iTE,,4.7,restaurant,23,"Novosadskog sajma 27 lok.1, Novi Sad"
27,45.2530406,19.8390463,"Кафана ""Греда""",ChIJbZiL7UEQW0cRmDrh23B0vjc,1,4.4,restaurant,1216,"Jevrejska 26, Novi Sad"
28,45.2484026,19.8337662,BelaVila,ChIJfXuzoT8QW0cRkLlZqKnVqYk,2,4.3,restaurant,133,"Braće Ribnikar 43, Novi Sad"
29,45.2502108,19.83876069999999,Ćilim,ChIJ6XpdlmoQW0cR3CuyKZzjEJI,1,4.5,restaurant,193,"13 LAZE KOSTIĆA, 21000, Novi Sad, Južno-bački okrug"
30,45.2410922,19.8474187,Пекара Крости,ChIJz7VmFQ4QW0cRkkBrl9Bmhp8,2,4.3,restaurant,465,"prizemlje 22 21000, Fruškogorska, Novi Sad"
31,45.2538115,19.8464853,Index House 021,ChIJD1Sm3GgQW0cR9DGRl_LwD54,1,3.5,restaurant,754,"Bulevar Mihajla Pupina, Novi Sad"
32,45.23841470000001,19.8172035,Restoran VonAmor,ChIJH3k05iUQW0cRlRUQLpslQ6Y,1,4.6,restaurant,272,"Ćirila i Metodija 56, Novi Sad"
33,45.24359509999999,19.8204193,Sabbiadoro,ChIJrwAmmDoQW0cR72tz8q3zCBI,2,4.6,restaurant,1777,"Teodora Pavlovića 41a, Novi Sad"
34,45.235602,19.819041,Valentino,ChIJy5EF3iYQW0cRZa2u6CbFTxk,,4,restaurant,33,"Heroja Pinkija 44, Novi Sad"
35,45.2406673,19.8133278,Rosetto,ChIJy_wS8C4QW0cR2_eSXKegFOc,2,4.6,restaurant,2457,"Bulevar patrijarha Pavla 14a, Novi Sad"
36,45.2408306,19.81209939999999,Magaza Gril,ChIJT4tm7S4QW0cRPtywUIbmQJA,,4.6,restaurant,478,"Bulevar patrijarha Pavla 14e, Novi Sad"
37,45.2476077,19.8251853,Klopa kao kod kuce,ChIJ8U9_mDkQW0cR2t0NWADg1Rc,,4.8,restaurant,97,"Cara Dušana 11a, Novi Sad"
38,45.2450521,19.8316637,Padrino’s Pizza,ChIJN3lLsj0QW0cRjPe8QuMafWk,2,4.1,restaurant,481,"28 21000, Miše Dimitrijevića, Novi Sad"
39,45.241029,19.809213,Priča Concept Bar,ChIJQxjWOywQW0cRiX_C0O3j7ek,2,4.5,restaurant,1474,"Bulevar patrijarha Pavla 16b, Novi Sad"
40,45.24914510000001,19.8216515,Ognjište kod Urgentnog - Roštilj iz Leskovac,ChIJ-dU9CzcQW0cRSuyeDjmw-h8,1,4.4,restaurant,944,"Futoška 85, Novi Sad"
41,45.2461025,19.8328811,Nook,ChIJgxX7aD4QW0cRWcC11PV_eyg,2,4.6,restaurant,418,"Miše Dimitrijevića 9, Novi Sad"
42,45.24736799999999,19.8111968,Žar Mance,ChIJ0_NdCTMQW0cRNHnR37NIq6Y,2,4.5,restaurant,992,"Subotička 1a, Novi Sad"
43,45.22987089999999,19.8334551,Restoran Ribarac,ChIJDcmjqAQQW0cR50BT4Ub_5rk,2,4.5,restaurant,935,Novi Sad
44,45.22999189999999,19.8350563,Piknik,ChIJdRIkguIPW0cR7Hfu77fEhwk,2,4.5,restaurant,4769,"Ribarsko ostrvo bb, Novi Sad"
45,45.2497637,19.8374811,Kao Nekad,ChIJ5wdUG0AQW0cRmVHt4qOipmw,,4.6,restaurant,116,"Danila Kiša 2-4, Novi Sad"
46,45.2527274,19.8320578,Gojko's pizza,ChIJWV0Cz8sRW0cRMH74x7A4oLg,1,4.4,restaurant,253,"Ćirpanova 36, Novi Sad"
47,45.23270109999999,19.841281,Top River Restoran,ChIJi0spQQMQW0cRUZAxUI2gjMc,,5,restaurant,1,Novi Sad
48,45.2514225,19.8356406,Index Maja,ChIJTTVFQ0wQW0cRciZ1KGYhp04,,4.5,restaurant,2035,"Futoška 14, Novi Sad"
49,45.2511379,19.83792829999999,Минута,ChIJkbxsM0AQW0cRwo_FEsYBftE,,3.6,restaurant,692,"Bulevar oslobođenja 89е, Novi Sad"
50,45.2510786,19.8379284,Tortilla Casa,ChIJR369NEAQW0cRGm5VqF37M3w,2,4.3,restaurant,1779,"21000, Bulevar oslobođenja 91, Novi Sad"
51,45.2484666,19.84125389999999,Vruca Kuca,ChIJdZbuLGsQW0cRsp1_hCK16j4,,4.3,restaurant,16,"Maksima Gorkog, Novi Sad"
52,45.2486136,19.8414788,Caribic Pizza,ChIJ__8_OmsQW0cRvaMwwkNuRIo,2,4,restaurant,797,"Trg Carice Milice 4, Novi Sad"
53,45.25235,19.837517,Balans Palacinke,ChIJEZ2Vu0EQW0cRJ7CCx6TrCLY,1,4.3,restaurant,1674,"Jevrejska 42, Novi Sad"
54,45.25232099999999,19.837664,Rekalibracija,ChIJxV3ju0EQW0cRQxcWWqJQ4qE,1,4.7,restaurant,504,"Jevrejska 42, Novi Sad"
55,45.25560229999999,19.8310991,Nacho Sombrero Bar,ChIJbevTMEAQW0cRZTZMT9G88XE,,4.6,restaurant,129,"Branimira Ćosića 9, Novi Sad"
56,45.2394622,19.8483798,Ni Hao,ChIJC98_Bw8QW0cRoP44npWpDnc,2,4.1,restaurant,609,"Fruškogorska 43, Novi Sad"
57,45.257254,19.8166958,Vivaldi-krstic Poslasticarnica,ChIJV6DrXksQW0cRONmpDwXLfP0,,4.9,restaurant,16,"Hadži Ruvimova 31, Novi Sad"
58,45.25741319999999,19.81739,Caribic Pizza,ChIJ52gfYksQW0cRJoKdYiMxOY0,2,4,restaurant,824,"Hadži Ruvimova 21, Novi Sad"
59,45.2494513,19.8444729,Gazprom Petrol - Novi Sad 1,ChIJQWoaLGsQW0cRKi6bctoR5DM,,4.4,restaurant,1122,"Maksima Gorkog 1b, Novi Sad"
60,45.24394299999999,19.821568,Hotel Gymnas,ChIJacFB7ToQW0cR4tgj3XJy-zI,,4,restaurant,220,"Teodora Pavlovića 28, Novi Sad"
61,45.2586006,19.8457403,Hotel and restaurant Fountain,ChIJocmNkmcQW0cRbWiL3n-lrxs,,4.6,restaurant,1944,"Nikole Pašića 27, Novi Sad"
62,45.2306484,19.8334585,Tourist resort Ribarsko ostrvo,ChIJZ92iVBwQW0cRi68mFMVcymU,,4.5,restaurant,267,"Ribarsko ostrvo 4, Novi Sad"
63,45.25139859999999,19.8418709,Macchiato Kuća,ChIJCybxWKARW0cRZX0VgMmdUJo,2,4.6,restaurant,571,"Železnička 10, Novi Sad"
64,45.2493376,19.8395276,Ananda,ChIJucw0tmoQW0cRhxD0Z1nof5g,2,4.7,restaurant,744,"Petra Drapšina 51, Novi Sad"
65,45.2546834,19.8460869,Pizzeria Caribic,ChIJc2fm4WgQW0cRu6e-k1iDNPk,2,4,restaurant,1767,"prizemlje i prvi sprat, Modene, Novi Sad"
66,45.2607103,19.8333861,Бар „Скеч”,ChIJaUeeHVAQW0cRjfMU6paNjYI,2,4.5,restaurant,1041,"Bulevar kralja Petra I 15, Novi Sad"
67,45.24759299999999,19.8111323,Aviso Fish Market,ChIJ2__d08wRW0cRHk9r29tYku4,2,4.5,restaurant,252,"Futoški put 39, 21000, Novi Sad"
68,45.2391953,19.8359797,Di Garibaldi,ChIJH8Ng_RkQW0cRPP8c9CQ5Txg,2,4.4,restaurant,630,"Narodnog fronta 25, Novi Sad"
69,45.2225654,19.8508437,Kordun,ChIJ0YW3JlQFW0cR9MjdL9PF4Mk,2,4.4,restaurant,328,"10A MOŠE PIJADE, 21208, Sremska Kamenica, Južno-bački okrug"
70,45.2378192,19.8478478,Bezza Caffe & restoran,ChIJg2ALew8QW0cRHXzMEB-otIQ,2,4.5,restaurant,1898,"Sunčani kej, Novi Sad"
71,45.2515447,19.8472095,Palačinkarnica Pinokio NS,ChIJUUWJD2wQW0cR0dNimpyRCbI,,4.6,restaurant,230,"Stražilovska 1, Novi Sad"
72,45.2481478,19.8146443,Нови Шампањац,ChIJs_z1-TMQW0cRcrWOkossMrM,2,4.5,restaurant,562,"Futoški put 9, Novi Sad"
73,45.2513277,19.8361383,Harpun - Pečena riba na žaru,ChIJi6fdUEAQW0cRjb4mZbsdtRg,2,4.6,restaurant,313,"Futoška 3, Novi Sad"
74,45.2576435,19.8333907,De Gusto,ChIJ41PD_EQQW0cR2gRXK9lEfUE,2,4.4,restaurant,1445,"Bulevar oslobođenja 48, Novi Sad"
75,45.25174749999999,19.8055215,Salatina,ChIJVTTpPWEQW0cRTraWyvpI5ow,,4.7,restaurant,63,"Bulevar Slobodana Jovanovića 10, Novi Sad"
76,45.2485145,19.8338182,Extra Food,ChIJ89koQD8QW0cRrrKG3UoDOMw,,3.7,restaurant,34,"43 BRACE RIBNIKAR, 21000, Novi Sad, Juzno-backi county"
77,45.2480583,19.83983419999999,Kutlača Bar,ChIJr2emJRUQW0cRfUpsXrLCQFE,,4.4,restaurant,238,"Maksima Gorkog br. 2, Novi Sad"
78,45.2422523,19.8365001,Caffe Pizzeria Big Blue,ChIJv_fL_hYQW0cR6Rb_JjaVHPc,2,4.6,restaurant,723,"Bulevar cara Lazara 47, Novi Sad"
79,45.252726,19.838197,Бањалучки ћевап,ChIJ895NlEEQW0cR7wFoVLP5WUw,2,4.5,restaurant,1664,"Gajeva, Novi Sad"
80,45.25903150000001,19.8243183,Bubi Grill,ChIJK4GtZE4QW0cRN2CXRy-m53Q,1,4.1,restaurant,457,"Bulevar kralja Petra I 95, Novi Sad"
81,45.25467689999999,19.8312481,PALAČINKARNICA BAŠ UKUSNO,ChIJoeMdr0YQW0cRA4LUGxw-iTE,,4.7,restaurant,23,"Novosadskog sajma 27 lok.1, Novi Sad"
82,45.25047680000001,19.800724,La Mama,ChIJd-vDzc4RW0cRQ7kjZSwL5XY,2,4.3,restaurant,112,"Partizanskih baza 29, Novi Sad"
83,45.2530406,19.8390463,"Кафана ""Греда""",ChIJbZiL7UEQW0cRmDrh23B0vjc,1,4.4,restaurant,1216,"Jevrejska 26, Novi Sad"
84,45.2430432,19.8535177,Indeksova Tribina,ChIJv2k3cAwQW0cR9szsRT73u-E,2,4.4,restaurant,822,"Jirečekova bb, Novi Sad"
85,45.2484026,19.8337662,BelaVila,ChIJfXuzoT8QW0cRkLlZqKnVqYk,2,4.3,restaurant,133,"Braće Ribnikar 43, Novi Sad"
86,45.2502108,19.83876069999999,Ćilim,ChIJ6XpdlmoQW0cR3CuyKZzjEJI,1,4.5,restaurant,193,"13 LAZE KOSTIĆA, 21000, Novi Sad, Južno-bački okrug"
87,45.23841470000001,19.8172035,Restoran VonAmor,ChIJH3k05iUQW0cRlRUQLpslQ6Y,1,4.6,restaurant,272,"Ćirila i Metodija 56, Novi Sad"
88,45.24359509999999,19.8204193,Sabbiadoro,ChIJrwAmmDoQW0cR72tz8q3zCBI,2,4.6,restaurant,1777,"Teodora Pavlovića 41a, Novi Sad"
89,45.235602,19.819041,Valentino,ChIJy5EF3iYQW0cRZa2u6CbFTxk,,4,restaurant,33,"Heroja Pinkija 44, Novi Sad"
90,45.2406673,19.8133278,Rosetto,ChIJy_wS8C4QW0cR2_eSXKegFOc,2,4.6,restaurant,2457,"Bulevar patrijarha Pavla 14a, Novi Sad"
91,45.2408306,19.81209939999999,Magaza Gril,ChIJT4tm7S4QW0cRPtywUIbmQJA,,4.6,restaurant,478,"Bulevar patrijarha Pavla 14e, Novi Sad"
92,45.2476077,19.8251853,Klopa kao kod kuce,ChIJ8U9_mDkQW0cR2t0NWADg1Rc,,4.8,restaurant,97,"Cara Dušana 11a, Novi Sad"
93,45.2450521,19.8316637,Padrino’s Pizza,ChIJN3lLsj0QW0cRjPe8QuMafWk,2,4.1,restaurant,481,"28 21000, Miše Dimitrijevića, Novi Sad"
94,45.241029,19.809213,Priča Concept Bar,ChIJQxjWOywQW0cRiX_C0O3j7ek,2,4.5,restaurant,1474,"Bulevar patrijarha Pavla 16b, Novi Sad"
95,45.24914510000001,19.8216515,Ognjište kod Urgentnog - Roštilj iz Leskovac,ChIJ-dU9CzcQW0cRSuyeDjmw-h8,1,4.4,restaurant,944,"Futoška 85, Novi Sad"
96,45.2461025,19.8328811,Nook,ChIJgxX7aD4QW0cRWcC11PV_eyg,2,4.6,restaurant,418,"Miše Dimitrijevića 9, Novi Sad"
97,45.24736799999999,19.8111968,Žar Mance,ChIJ0_NdCTMQW0cRNHnR37NIq6Y,2,4.5,restaurant,992,"Subotička 1a, Novi Sad"
98,45.2410922,19.8474187,Пекара Крости,ChIJz7VmFQ4QW0cRkkBrl9Bmhp8,2,4.3,restaurant,465,"prizemlje 22 21000, Fruškogorska, Novi Sad"
99,45.22987089999999,19.8334551,Restoran Ribarac,ChIJDcmjqAQQW0cR50BT4Ub_5rk,2,4.5,restaurant,935,Novi Sad
100,45.22999189999999,19.8350563,Piknik,ChIJdRIkguIPW0cR7Hfu77fEhwk,2,4.5,restaurant,4769,"Ribarsko ostrvo bb, Novi Sad"
101,45.2497637,19.8374811,Kao Nekad,ChIJ5wdUG0AQW0cRmVHt4qOipmw,,4.6,restaurant,116,"Danila Kiša 2-4, Novi Sad"
102,45.2527274,19.8320578,Gojko's pizza,ChIJWV0Cz8sRW0cRMH74x7A4oLg,1,4.4,restaurant,253,"Ćirpanova 36, Novi Sad"
103,45.23270109999999,19.841281,Top River Restoran,ChIJi0spQQMQW0cRUZAxUI2gjMc,,5,restaurant,1,Novi Sad
104,45.2514225,19.8356406,Index Maja,ChIJTTVFQ0wQW0cRciZ1KGYhp04,,4.5,restaurant,2035,"Futoška 14, Novi Sad"
105,45.2510786,19.8379284,Tortilla Casa,ChIJR369NEAQW0cRGm5VqF37M3w,2,4.3,restaurant,1779,"21000, Bulevar oslobođenja 91, Novi Sad"
106,45.2511379,19.83792829999999,Минута,ChIJkbxsM0AQW0cRwo_FEsYBftE,,3.6,restaurant,692,"Bulevar oslobođenja 89е, Novi Sad"
107,45.2484666,19.84125389999999,Vruca Kuca,ChIJdZbuLGsQW0cRsp1_hCK16j4,,4.3,restaurant,16,"Maksima Gorkog, Novi Sad"
108,45.2486136,19.8414788,Caribic Pizza,ChIJ__8_OmsQW0cRvaMwwkNuRIo,2,4,restaurant,797,"Trg Carice Milice 4, Novi Sad"
109,45.25235,19.837517,Balans Palacinke,ChIJEZ2Vu0EQW0cRJ7CCx6TrCLY,1,4.3,restaurant,1674,"Jevrejska 42, Novi Sad"
110,45.25232099999999,19.837664,Rekalibracija,ChIJxV3ju0EQW0cRQxcWWqJQ4qE,1,4.7,restaurant,504,"Jevrejska 42, Novi Sad"
111,45.25560229999999,19.8310991,Nacho Sombrero Bar,ChIJbevTMEAQW0cRZTZMT9G88XE,,4.6,restaurant,129,"Branimira Ćosića 9, Novi Sad"
112,45.2394622,19.8483798,Ni Hao,ChIJC98_Bw8QW0cRoP44npWpDnc,2,4.1,restaurant,609,"Fruškogorska 43, Novi Sad"
113,45.257254,19.8166958,Vivaldi-krstic Poslasticarnica,ChIJV6DrXksQW0cRONmpDwXLfP0,,4.9,restaurant,16,"Hadži Ruvimova 31, Novi Sad"
114,45.25741319999999,19.81739,Caribic Pizza,ChIJ52gfYksQW0cRJoKdYiMxOY0,2,4,restaurant,824,"Hadži Ruvimova 21, Novi Sad"
115,45.2494513,19.8444729,Gazprom Petrol - Novi Sad 1,ChIJQWoaLGsQW0cRKi6bctoR5DM,,4.4,restaurant,1122,"Maksima Gorkog 1b, Novi Sad"
116,45.26510890000001,19.8367468,Гостиона Миша,ChIJxTuEv1kQW0cRsSM_3u4m-ss,1,4.4,restaurant,245,"Kisačka br. 56, Novi Sad"
117,45.2228971,19.8338691,Fish Restaurant Sremac,ChIJmbsc2foPW0cRtjt7UiYjFHk,2,4.1,restaurant,524,"Karađorđeva 16, Sremska Kamenica"
118,45.2575437,19.8154116,Nacionalna Kuca Pet +,ChIJfV9aarMRW0cRrYnlzcQ4RlE,2,4.6,restaurant,119,"Dr Svetislava Kasapinovića 15, Novi Sad"
119,45.2576602,19.8153493,"Национална кућа""Сач""",ChIJobpIq7QRW0cRO2A2Jv9-tgs,,4.7,restaurant,43,"Dr Svetislava Kasapinovića, Novi Sad"
120,45.3105645,19.8506601,Jezero Kasapska Ada,ChIJNUsZe9YWW0cRj7c2o0SbItE,1,4.7,restaurant,118,Novi Sad
121,45.3378586,19.8305799,Bulac,ChIJkbBzTnkWW0cRbt1TeG1moGU,2,4.5,restaurant,432,"80 Međunarodni put, 21233, Čenej"
122,45.2922883,19.8305959,Sunce,ChIJZ1TjryMRW0cR7Y_7c-QdRmE,,3.6,restaurant,7,"55 TEMERINSKI PUT, 21000, Novi Sad, Južno-bački okrug"
123,45.2766463,19.825785,McDonald’s Big Cee,ChIJnQFRQwIRW0cROamYcvjuff8,2,4,restaurant,1012,"Sentandrejski put 11, Novi Sad"
124,45.2766054,19.8257987,KFC Novi Sad Big Fashion,ChIJyQfdOwIRW0cRvLFWhH7EpWg,,4.2,restaurant,1667,"Big CEE tržni centar, prvi sprat, Sentandrejski put 11, Novi Sad"
125,45.289288,19.830987,"Jet Set Novi Sad - sobe, prenoćište, polupansion, pansion, smeštaj",ChIJN-pBACIRW0cRvewh-ayt5Rw,2,3.6,restaurant,255,"Temerinski put, Novi Sad"
126,45.2844387,19.8299285,Surabaya Indonežanski-kineski restoran,ChIJN_PcJhwRW0cR4n0vL1GGsyE,2,4.7,restaurant,681,"Primorska 26, Novi Sad"
127,45.3098357,19.8254406,Pauza by Hit Grill,ChIJ6Y6hzhsRW0cRQT_Jsn1o-jA,,5,restaurant,1,"Sentandrejski put 161a, Novi Sad"
128,45.3026597,19.8266906,Don Vito-Vlasto,ChIJg_QYLTERW0cR_k28XHhuDWo,,,restaurant,,"9 FOČANSKA, 21000, Novi Sad, Južno-bački okrug"
129,45.3020413,19.817995,La Tvorza,ChIJ6SmYE5gRW0cRV1oZmRAADeE,2,4.8,restaurant,191,"Miloja M. Vasića 2, Novi Sad"
130,45.3016168,19.8130685,Pečenjara Siki,ChIJV_DnGUYRW0cR6MYZsgx5xK0,2,4.8,restaurant,84,"Proleterska 7, Novi Sad"
131,45.30148919999999,19.811909,"Pečenjara""Kod Miće""",ChIJ-eRfxPARW0cRijFchq82EHM,,4.7,restaurant,30,"Proleterska 11, Novi Sad"
132,45.2981166,19.8215514,Ресторан „Сики”,ChIJHYkxdTkRW0cRxiFFrGUHTy8,1,4.3,restaurant,1597,"Klisanski put 167, Novi Sad"
133,45.2977205,19.8213636,Kod Sikija,ChIJ292UcjkRW0cRBZg-bmOYNtE,,4.2,restaurant,36,"9 Savska, 21000, Novi Sad, Južno-bački okrug"
134,45.2947261,19.8305476,caffe sedmica,ChIJb4W2_00RW0cR-6PzOkFcLfg,,4,restaurant,5,"Temerinski put, Novi Sad"
135,45.29484129999999,19.8337521,Gagi,ChIJk3cFPiQRW0cRjzbX4BFDZy4,,,restaurant,,"23/a A. Varađanina, 21000, Novi Sad, Južno-bački okrug"
136,45.29195429999999,19.8237884,Bife Boem,ChIJ06wSFD0RW0cRBZ3bZdLfYxU,,,restaurant,,"130 SENTANDREJSKI PUT, 21000, Novi Sad, Južno-bački okrug"
137,45.2906872,19.8246246,Фортуна 021,ChIJFZj7Uz0RW0cR22n31Dj1UeY,2,4.5,restaurant,620,Novi Sad
138,45.2906951,19.8266341,Место добре хране „Зврк“,ChIJ8WX3BXwRW0cRSVOMa5ZWPSY,,5,restaurant,18,"Čenejska 70, Novi Sad"
139,45.290979,19.8303394,"Ресторан ""Сунце""",ChIJ8-39RiIRW0cRDvskkeQn1Hc,1,4.2,restaurant,362,Novi Sad
140,45.2903051,19.819513,Danguba,ChIJl8sWPhYRW0cREPomE9hwBtU,,,restaurant,,"77 KLISANSKI PUT, 21000, Novi Sad, Južno-bački okrug"
141,45.2905232,19.8303326,Gurman MM,ChIJ2-oDbB4RW0cRLc0unewg2k4,1,4.5,restaurant,23,"Temerinski put 55a, Novi Sad"
142,45.2898593,19.830683,BIG CHICKEN GRILL,ChIJQxah0eIRW0cRGzfiSJFcDoM,,4.2,restaurant,55,"Temerinski put 47, Novi Sad"
143,45.28916479999999,19.82443,Gyros Meraki GYROS & PALAČINKE,ChIJf_866nYRW0cRIzTerBmda00,,4.2,restaurant,5,"Sentandrejski put 57, Novi Sad"
144,45.2888335,19.8245683,Rostilj Kod Dese,ChIJo-WiRD0RW0cROQBByDoGfFg,1,4.8,restaurant,184,"Sentandrejski put 51, Novi Sad"
145,45.2860677,19.822651,Gurmanke,ChIJU7xC9xkRW0cRVtMVe5l_n2M,,4,restaurant,2,"20 Nizijska, 21000, Novi Sad, Južno-bački okrug"
146,45.2850991,19.8331861,Pecenjara 021,ChIJcyGBq_QRW0cRmjvboBPlhL8,,4.2,restaurant,12,"Temerinski put 1, Novi Sad"
147,45.2849082,19.8327454,Krcmar,ChIJGwMeIzURW0cRrkG6dJedaS4,,4.5,restaurant,2,"Primorska 2-8, Novi Sad"
148,45.2847675,19.8318266,KUHINJICA 021,ChIJh5JhFNoRW0cRPh9aPRaxL8Q,,5,restaurant,3,"Primorska 10, Novi Sad"
149,45.2847357,19.8316982,"Ur bife ""Nina Aiž""",ChIJJdQgl-ERW0cRgQFfptVAoXU,,4.6,restaurant,5,"Primorska 12, Novi Sad"
150,45.2847577,19.8318879,Pizza plus,ChIJYzKXsKgRW0cRN178BphD9Cs,,4.6,restaurant,348,"Primorska 10, Novi Sad"
151,45.2846798,19.8315879,Tema Palačinke,ChIJo5HuR5sRW0cRoPZ2xaiKyI4,,5,restaurant,10,"Primorska 12, Novi Sad"
152,45.2845294,19.830443,Bella ciao,ChIJv6qY95URW0cR4nrga8FUJo8,,4.7,restaurant,39,"Primorska 22b, Novi Sad"
153,45.28457650000001,19.8311606,HIT GRILL rostilj,ChIJG55_SdoRW0cRY9LHt-WXzEU,,5,restaurant,1,"Primorska 18, Novi Sad"
154,45.28457650000001,19.8311606,Balkan Ćevabdžinica,ChIJ1VvDejURW0cRERcXU3H2rIQ,,4.4,restaurant,16,"Primorska 18, Novi Sad"
155,45.28276289999999,19.8346407,Gril Mimi 021,ChIJI61MnM4RW0cRarL9jMCZkGQ,,4.6,restaurant,24,"Temerinska 175, Novi Sad"
156,45.2838688,19.8413886,Mil-Mir & Co.,ChIJ5WXNNOEQW0cReTi1L72h6nc,,4.3,restaurant,4,"78 ZIVOJINA CULUMA, 21000, Novi Sad, Juzno-backi county"
157,45.3548517,19.809919,Dedin Salaš,ChIJhQ-ju40VW0cRTF6acWqxVkQ,,4.7,restaurant,161,"Salaš 170, Čenej"
158,45.276658,19.8263563,MACCHIATO BIG,ChIJ06wSFD0RW0cRf5ngNZEyPMk,2,4.4,restaurant,1041,"Sentandrejski put 11, Novi Sad"
159,45.2766201,19.8257877,Pizerija Totto,ChIJHROvNQIRW0cRQDkogjNoCwQ,,3.6,restaurant,27,"Sentandrejski put 11, Novi Sad"
160,45.2765669,19.8257669,Walter BBQ,ChIJLT8_kXMRW0cRUvhZuS14h74,2,3.2,restaurant,115,"Sentandrejski put 11, Novi Sad"
161,45.2771477,19.83857159999999,Slavija,ChIJ_9XQPvsQW0cRgjitklFOWzw,,3,restaurant,1,"121 TEMERINSKA, 21000, Novi Sad, Juzno-backi county"
162,45.2771477,19.83857159999999,Sedmica 04,ChIJ_9XQPvsQW0cR-x_teLyn3nM,,,restaurant,,"176 TEMERINSKA, 21000, Novi Sad, Južno-bački okrug"
163,45.2756467,19.8259349,Totto - brza hrana,ChIJaX7A-J4RW0cRxsKSLuQiM10,,3.5,restaurant,13,"Sentandrejski put 11, Novi Sad"
164,45.3598462,19.8180957,Salaš 341 u sedlu,ChIJFadcEy0VW0cRdZ5rEg-RXsY,,5,restaurant,1,"Salaš 431, Čenej"
165,45.3598462,19.8180957,Restoran balac,ChIJPdNHA1wVW0cRnOm9wTG3C7I,,,restaurant,,Čenej
166,45.2750587,19.8287748,Nacionalna klasa,ChIJNSyTCuURW0cR-VLBNMh5NjQ,2,4.4,restaurant,2832,"Sentandrejski put, Novi Sad"
167,45.3557988,19.7958602,zoranov salas,ChIJZ-StMV0VW0cRx9OE74VepW4,,,restaurant,,"Unnamed Road, Čenej"
168,45.27473099999999,19.8263501,Kamion Food Truck,ChIJ4aQMKmsRW0cRGXPpgYjcuBY,,4.9,restaurant,115,"BIG Novi Sad, Sentandrejski put 11, Novi Sad"
169,45.279269,19.791036,Pizzeria sombastik Sajlovo,ChIJb2f3w7wRW0cRN-NRfcTBdio,,4,restaurant,1,"Donje Sajlovo, Novi Sad"
170,45.27936899999999,19.7900348,Druga Kuća kod Kojića,ChIJa5_4nncRW0cR0kDpnlhTGVc,2,4.6,restaurant,292,"Rumenački put 71, Novi Sad"
171,45.31659519999999,19.8111457,Salaš Peković,ChIJgw9NaasXW0cR6wJlvYmE_Ys,,,restaurant,,Novi Sad
172,45.3022003,19.9327735,Restoran Omorika,ChIJI54RK-0ZW0cRDhGBIz1Yc_8,,4.4,restaurant,443,"Svetosavska 47, Kać"
173,45.2758295,19.92151,Gazprom Petrol - Novi Sad 16,ChIJk6PwOjkaW0cRjSg38hh6IYU,,4.4,restaurant,2494,"Autoput NS - BG, Novi Sad"
174,45.2914016,19.9063034,"Lovačka kuća ""Četiri jelena""",ChIJo7iRc8UbW0cR3aahT2jl5iI,,4.2,restaurant,5,"Stari kaćki put bb, Kać"
175,45.2962188,19.9137916,Vojvođanski salaš,ChIJW3YlJMYZW0cRli1cVqDcNmE,2,4.6,restaurant,935,"Stari kaćki put 88, Kać"
176,45.2999199,19.9343046,"Restoran ""Jugović""",ChIJA6abgZIZW0cRBuSh-W0RPek,,3.5,restaurant,11,"Sokak Živko Kondić, Kać"
177,45.2988278,19.9406742,Naš Slatki Trg,ChIJp7PuqS8ZW0cRhLPmDFNHHPc,,4.2,restaurant,11,"Save Maleševa 13, Kać"
178,45.3017349,19.93416779999999,Хамбургерија Жар,ChIJZ4uo-pIZW0cRXoLC9ptqNBQ,,4.6,restaurant,80,"Svetosavska, Kać"
179,45.3003622,19.9377363,Bećar Kutlača,ChIJUb-DaCoZW0cRlO1vx7KsU1E,2,4.6,restaurant,96,"Svetosavska 7, Kać"
180,45.302992,19.9307782,Zar,ChIJP3zc4uwZW0cRpLOgCcGA3CI,2,4.6,restaurant,68,"33 SVETOSAVSKA, 21241, Kac, Juzno-backi county"
181,45.302992,19.9307782,Carli Kac,ChIJP3zc4uwZW0cRl6Bj6DxCcdw,,4.5,restaurant,21,"58 SVETOSAVSKA, 21241, Kac, Juzno-backi county"
182,45.29561409999999,19.9462574,lovačko društvo kać,ChIJAxOzAoUZW0cRQ-TJ4Ivoseg,,4.4,restaurant,7,"Narodne vojske, Kać"
183,45.29897229999999,19.9418623,KIBICFENSTER,ChIJbQnPptEZW0cR-5cvhrYNwqE,,4.9,restaurant,24,"Kralja petra l 15, Kać"
184,45.2993633,19.9413248,RUSTIK BAR RESTORAN,ChIJxQEo9ksZW0cRYaQl2P1C7S4,2,4.8,restaurant,161,"Kralja Petra I 11a, Kać"
185,45.2997607,19.9413131,Skolska hala,ChIJ2bkrVKUZW0cRQW-YxyBkexU,,,restaurant,,"Save Maleševa, Kać"
186,45.3052293,19.9188293,BOŽUR,ChIJBXYJdLoZW0cRWT55tGNkd-c,,,restaurant,,"Vladimira Rolovića 72, Kać"
187,45.30284750000001,19.9369772,Basko Prevoz,ChIJg3VQoJMZW0cRaG-SxhhCz2E,,,restaurant,,"12 Svetozara Markovića, 21241, Kać, Južno-bački okrug"
188,45.2587752,19.8843421,Restoran i Ribolovačko društvo Šaran,ChIJswzdoocaW0cR0Y0E5Cyew8U,2,4.4,restaurant,1018,"Petrovaradinska ada BB, Petrovaradin"
189,45.3127077,19.9285239,Poljane Mira,ChIJhWzjY7oZW0cRzk7oHR_qzZI,,3,restaurant,2,"Sime Šolaje 97, Kać"
190,45.3125114,19.9307717,Pecenjara “Zule”,ChIJU2QiS3kZW0cRaQZBhEt9T8Y,2,4.5,restaurant,52,"Boška Buhe 17, Kać"
191,45.24946569999999,19.8775335,Diližansa,ChIJTdxZXoYbW0cRKdI5Lv0JIRc,,3.9,restaurant,63,"Juraja Križanića 4, Petrovaradin"
192,45.2503849,19.8751532,Галерија coffee & food bar Petrovaradin,ChIJMaKMPtYbW0cRoBzYq0Z3aD8,2,4.8,restaurant,171,"Preradovićeva 27, Petrovaradin"
193,45.2507088,19.8747126,Majurski Bircuz,ChIJgeBQc5saW0cRs4yWf6_xtyA,,4,restaurant,1,"Preradovićeva 23, Petrovaradin"
194,45.2522937,19.8720256,Da Mario Plus,ChIJgeBQc5saW0cRVKQi6R0uCkU,2,4.5,restaurant,506,"Čajkovskog 2, Petrovaradin"
195,45.25155509999999,19.87251239999999,Đava Gril,ChIJq8wASUwbW0cRcsXCXzUPNHw,,4.7,restaurant,169,"Preradovićeva 8, Petrovaradin"
196,45.2480916,19.876414,Kod Duške,ChIJ2Vy3k5obW0cRJPx3a7C3ZF8,,4.4,restaurant,23,"Jože Vlahovića 30, Petrovaradin"
197,45.244643,19.8811515,Klopa kod Mare,ChIJZdnyiDIbW0cRlG45EyhhwIM,,5,restaurant,20,"100 85, Petrovaradin"
198,45.2447113,19.8805706,Restoran Zlatnik,ChIJg6OhX6wbW0cRJLkuWdwq1hQ,,5,restaurant,21,"Preradovićeva 80, Petrovaradin"
199,45.2432786,19.88193,Full pizza,ChIJFU_2JnobW0cRfDbVZH7bSvo,,4.2,restaurant,20,"Preradovićeva 97, Petrovaradin"
200,45.2432786,19.88193,Index Andjela,ChIJgeBQc5saW0cRjMOc6GRzca8,2,4.4,restaurant,289,"Preradovićeva 97, Petrovaradin"
201,45.24333,19.8814548,Burek i Pite ispod sača kod Cveleta,ChIJ8zx3AKUbW0cR4j4QW7GzJHI,2,4.7,restaurant,96,"Preradovićeva 92, Petrovaradin"
202,45.2683609,19.8577974,Lucko Kafance,ChIJQT3e3IsQW0cRZaBGW39ZsCo,,2.7,restaurant,3,"11 KANALSKA, 21000, Novi Sad, Južno-bački okrug"
203,45.2411506,19.8837854,Nezza Pizza,ChIJH2SuMD4bW0cRpnWPA4Q53NU,,4.4,restaurant,49,"Preradovićeva 110, Petrovaradin"
204,45.239849,19.8863849,Merak,ChIJPw4b_JUbW0cR8fA3TmYmR5g,,4.7,restaurant,34,"Franje Štefanovića 3a, Petrovaradin"
205,45.24032709999999,19.8849001,Gyros Che,ChIJE9jpvnUbW0cRlTR10szqb8I,,4.6,restaurant,10,"Preradovićeva 123, Petrovaradin"
206,45.18997,19.937106,Vila Prezident,ChIJf_fEiZ8EW0cRToqrB6wEgJo,,4.6,restaurant,415,"Belilo 71, Sremski Karlovci"
207,45.2021194,19.934313,Restoran Sremski Kutak,ChIJEZHWnKcEW0cRjTIU9VCfEEo,2,4.1,restaurant,140,"Mitropolita Stratimirovica br.2, Sremski Karlovci"
208,45.206502,19.9399121,Pasent,ChIJpzPfHqwEW0cRpo47JLMJ_-4,2,4.6,restaurant,4055,"Dunavska 7, Sremski Karlovci"
209,45.2043984,19.8904715,Razbeerbriga,ChIJIZA9X98EW0cR_P2588XqjGE,,4.3,restaurant,66,"Karađorđeva 208, Bukovac"
210,45.2020885,19.9329758,picerija KUM,ChIJTQuBZ6UEW0cRR7OLYwvpC6w,1,4.4,restaurant,58,"Jovana Grosa 1, Sremski Karlovci"
211,45.2024668,19.9335585,Kod Sumara,ChIJ7zkKhfcFW0cRn_ju3ZY7E4E,,,restaurant,,"stražilovski put, Sremski Karlovci"
212,45.2026848,19.9336557,Gostiona Kod 4 Lava,ChIJ08bMja8EW0cRBtqHfUXDqcI,2,4.6,restaurant,585,"Trg Branka Radičevića 3, Sremski Karlovci"
213,45.2031237,19.9336702,Bermet villa,ChIJwVdq7a8EW0cRMi5eFUVr_Jw,2,4.6,restaurant,3093,"Trg Branka Radičevića 5, Sremski Karlovci"
214,45.2014083,19.9343032,Restoran Ljubicic,ChIJV1WSnqUEW0cR0kzyDo1P1zg,,4.8,restaurant,44,"Stražilovska 3, Sremski Karlovci"
215,45.2022822,19.9348838,Nosh-up caffe&restaurant,ChIJnc3pqSEFW0cRvUHTnya5yLk,,4.8,restaurant,60,"Mitropolita Stratimirovića 7, Sremski Karlovci"
216,45.20430169999999,19.9352699,Hamburgerija kod Brke,ChIJs5nBGTAFW0cRZAKjfmj8pk0,2,3.7,restaurant,56,"Trg Patrijarha Brankovića, Sremski Karlovci"
217,45.2046941,19.9356693,Time for Break,ChIJF0jdwFoFW0cR9SoCdVbtcSs,,4.1,restaurant,49,"Trg Patrijarha Brankovića 9, Sremski Karlovci"
218,45.2045631,19.9357471,Restaurant “Kruna”,ChIJrVDcUq4EW0cRdKiLTWuPX3E,2,4.3,restaurant,855,"Trg Patrijarha Brankovića 5, Sremski Karlovci"
219,45.16865670000001,19.9173379,Бранков чардак,ChIJmXyGq3kEW0cRxSBJxzdM7VQ,2,4.5,restaurant,90,"Stražilovački put bb, Sremski Karlovci"
220,45.2063004,19.940124,Чарда под ‘ладом платана,ChIJDbhNHqwEW0cRTzY8QVJK3bc,,4.2,restaurant,778,"Dunavska 5, Sremski Karlovci"
221,45.2062882,19.9401851,Риболовачко друштво,ChIJOVpSHKwEW0cRcyv0J74AtKk,,4.3,restaurant,48,Sremski Karlovci
222,45.2160696,19.9369181,Beach Bar - Sremski Karlovci,ChIJtxX6BD4bW0cR4bp2f5XGs8k,,,restaurant,,"Ostrvo Koh Chang, Sremski Karlovci"
223,45.1870307,19.954565,"Etno Selo ""MARKOVI KONACI""",ChIJA7mccJIDW0cR6Lhy-gbtVbU,2,4.6,restaurant,599,"Banstol 1, Sremski Karlovci"
224,45.177978,19.952101,Oaza Banstol,ChIJCXe3W3IDW0cR2I-IJBP5eOY,2,4.2,restaurant,118,Sremski Karlovci
225,45.2055459,19.8699997,Vila Monokl,ChIJn4kCkyEFW0cRY-6LJsnsVdw,,5,restaurant,3,"Alibegovac BB, Novi Sad"
226,45.22571519999999,19.8785809,BOB GRILL,ChIJnTUaxtobW0cRro0jKk0TeVI,,5,restaurant,6,"21 141, Petrovaradin"
227,45.22950360000001,19.8821353,Roštilj i kuvana jela Bucka,ChIJc6UI-ZMbW0cROuYK_xLix7k,,4.5,restaurant,21,"Račkog 118 Petrovaradin, Novi Sad"
228,45.23805639999999,19.8839955,Dionis,ChIJ-4C0_BobW0cRBeulVyg7BDk,2,4.4,restaurant,165,"Račkog 38, Petrovaradin"
229,45.1726389,19.9126866,"Mountaineers Lodge ""Strazilovo""",ChIJ42wAhXwEW0cRCHfhn1ngw6U,,,restaurant,,Sremski Karlovci
230,45.1842073,19.826895,Планинарски дом ПСД Железничар,ChIJJUdG3YUFW0cRoDMous_xBKY,1,4.6,restaurant,96,"Fruškogorski put 366, Sremska Kamenica"
231,45.1886978,19.8066711,Podrum Miljević,ChIJva7SbHAPW0cRZpAm-wH8E80,,4.8,restaurant,140,"41, Sime Šolaje 41, Ledinci"
232,45.15925650000001,19.7805726,Мотел Змајевац,ChIJNZh_hLMIW0cRhJ_tvjU_5UU,,4,restaurant,102,Rakovac
233,45.1322929,19.8396424,Vinska Kuca Kovacevic,ChIJAdp0c_QGW0cRldyVG5i6NOM,2,4.8,restaurant,4374,"Kralja Petra 221, Irig"
234,45.1362505,19.7923036,Fruškogorski Jelen,ChIJ3WYv4CMGW0cRgQ92XzsCQyA,2,4.4,restaurant,1048,"Karađorđeva 33, Vrdnik"
235,45.124207,19.7947436,Ilkicev kucerak u Sremu,ChIJPwm5xzMGW0cRpyIz7uNTzJ8,2,4.6,restaurant,249,"Mirka Laćarca 9, Vrdnik"
236,45.15052650000001,19.8289564,Arena Restaurant,ChIJsckKOy4HW0cReP6XKa8WYuU,2,4.1,restaurant,571,"Iriški Venac, Krug Bolnice BB, Sremska Kamenica"
237,45.1496801,19.82989389999999,Наша кућа,ChIJj7AhnHYGW0cRsB5B7WiNmbY,,4.3,restaurant,28,Iriški Venac
238,45.1514176,19.8390219,Restoran Na Vencu,ChIJt7HQFXkHW0cRPWYSaTKohNM,,4.3,restaurant,499,"Put novosadskog partizanskog odreda bb, Irig"
239,45.1472272,19.8304073,Lugarnica,ChIJkc-VIwcHW0cRBX59C14X8u8,2,4.1,restaurant,266,21
240,45.1512852,19.83904339999999,Restoran - Fruška Gora,ChIJjRrKu7AHW0cRRZWWWh1cKfU,,4,restaurant,2,"Iriški venac, Irig"
241,45.1792106,19.8395843,Rajska bajka,ChIJ75-wZkEFW0cRGjx0wANnNVM,,4.2,restaurant,882,"Paragovo, Iriški put 91, Sremska Kamenica"
242,45.1820404,19.8366584,Планинарски дом „Орлово гнездо”,ChIJJeZsmJoFW0cRObTVz3zyjPg,1,4.6,restaurant,292,"Majdanska, Sremska Kamenica"
243,45.1842501,19.8275184,"Planinarski dom ""Crveni Čot""",ChIJrydxEJMFW0cRtNbQP8x6At0,,4.5,restaurant,53,"Fruškogorski put 366, Sremska Kamenica"
244,45.1591105,19.7807133,Restoran Zmajevac,ChIJ9yNpq7wJW0cRMi8OrK_RC3g,2,3.8,restaurant,525,"function(){return _.O(this,11, Rakovac"
245,45.1899843,19.8064818,Nasa farma kozica,ChIJ7zXYuGQPW0cRldpcgfSkz8w,,5,restaurant,22,"Vuka Karadžića 55 21207, Ledinci"
246,45.1858218,19.8503201,Planinarski Dom Zanatlija,ChIJ-fWoyqEFW0cRVeqtOOi4Muk,1,4.7,restaurant,115,Sremska Kamenica
247,45.13544419999999,19.7922246,Lary & Co.,ChIJESKZCSQGW0cR1n4UQHJ3ldM,,,restaurant,,"Karađorđeva, Vrdnik"
248,45.1355022,19.7921222,Banja Gril,ChIJ1QhHCCQGW0cRwV8ILyitn_w,2,4.2,restaurant,178,"Karađorđeva, Vrdnik"
249,45.1292482,19.8422893,Vila Green Day,ChIJ5YQ61_QGW0cR-Crzhrmfk5M,2,4.6,restaurant,442,"Krstašice 97, Irig"
250,45.1426854,19.779251,Restaurant Vrdnicka Kula,ChIJqZpggpgIW0cR1-vZwbd-_QA,2,4.4,restaurant,1186,Irig
251,45.1411929,19.7798448,Restoran Fruško,ChIJe_-drNMJW0cRNId2b3TTetU,,4.7,restaurant,3,"Potes Pod Kulom bb, Vrdnik"
252,45.1978319,19.8347984,Trkulja Petar,ChIJSYINvEgFW0cRGTuTuQJZaBo,,4.7,restaurant,30,"Paragovski vidikovac 36, Sremska Kamenica"
253,45.1966793,19.8412335,Sikman,ChIJQ8BoZXoFW0cR-3IyV49OYXA,,4.3,restaurant,3,"Slavujeva Ulica, Sremska Kamenica"
254,45.1315464,19.7903643,Guest House Mines,ChIJS5y_MjIGW0cRYEeGcygGdF0,2,4.4,restaurant,1416,"Radnička bb, Vrdnik"
255,45.20084689999999,19.8160537,Vizija Extra,ChIJMThZJoAPW0cRqSfNXN15OuQ,,,restaurant,,Jasmina
256,45.1302655,19.7888847,Конак Стари Орах,ChIJUXvzbNgHW0cRKwuVnEtNWHg,2,4.4,restaurant,591,"Fruskogorska 17, Vrdnik"
257,45.1303584,19.786928,Restoran Stadion 23,ChIJIWf7l0EHW0cR5E-QAVAV-HI,,5,restaurant,7,"Trg Cara Lazara 11a, Vrdnik"
258,45.1296841,19.7880403,"Ribarnica ""Kod Leke""",ChIJ89AbkbkHW0cRC8eOodOruWs,,,restaurant,,"Fruskogorska, Vrdnik"
259,45.1995045,19.8424448,Fruškogorska terasa,ChIJQ7dFNWUFW0cRBZX2d0ZvZpw,2,4.4,restaurant,436,"21, Sremska Kamenica"
260,45.1288269,19.7880693,Kod putinа,ChIJhTKJyk4HW0cRJIBHvIpE-sY,,3.3,restaurant,15,"Fruskogorska 22408, Vrdnik"
261,45.1283265,19.7881444,Лазар,ChIJ74TP6C4GW0cRtVxfdwzvCmk,1,4.5,restaurant,36,"Trg Cara Lazara, Vrdnik"
262,45.1810344,19.7707011,Ресторан Пећина Раковац,ChIJLSUYTl4PW0cRnqlDHCnAGoM,,4.4,restaurant,33,"313, Rakovac"
263,45.1282319,19.7866877,GRICKO 022,ChIJn6AnP44HW0cRMq9LVJHNwqw,,3.7,restaurant,3,"Železnička bb, Vrdnik"
264,45.1279315,19.7872406,Kafana na mostu,ChIJof34DRwHW0cRBt_iJRjj-SY,,,restaurant,,"Železnička 2, Vrdnik"
265,45.12645910000001,19.787639,Red Baron 2019 Pub,ChIJYxBcKSwGW0cRhRcBehbC1Yo,2,4.6,restaurant,587,"Železnička 5, Vrdnik"
266,45.12679989999999,19.7875095,Pizza grill-fastfood,ChIJk3ZxJnsHW0cRoHj_hmWrozs,,4.3,restaurant,41,"Železnička С2, Vrdnik"
267,45.12678260000001,19.7874582,Oktava,ChIJA4Y4DS0GW0cRkYBPAePnWHw,,4.4,restaurant,29,"Železnička 1, Vrdnik"
268,45.18696829999999,19.7724136,Fig Restaurant,ChIJhdRyzUcPW0cRDNeMaWiOJb0,,5,restaurant,26,"Manastirska, Rakovac"
269,45.1256621,19.7876212,Cafe La Potra,ChIJs0ueLEkHW0cRalnKby1AzIk,1,4.4,restaurant,128,"Železnička 30, Vrdnik"
270,45.12253949999999,19.7939183,Mimoza,ChIJGQNAADMGW0cROfch-3pPkgo,,3.9,restaurant,53,"75 9. Vojvođanske brigade, 22408, Vrdnik, Sremski okrug"
271,45.2017761,19.8502878,Dzoni,ChIJl42nNhsFW0cRbZlBwB5kcFY,,,restaurant,,Sremska Kamenica
272,45.2272542,19.7155201,"Ресторан „Караш""",ChIJdV1Yq8YNW0cRI8npl58R-i4,2,4.5,restaurant,1469,"Naselje Dunav bb, Beočin"
273,45.238115,19.7264995,Restoran Kesten,ChIJA9ZY8-wNW0cRTRWldaihwX0,2,4.6,restaurant,452,"Cara Lazara br. 190, Futog"
274,45.237534,19.70698,Restoran Marina / Hotel,ChIJCUQvx5YNW0cRzGro5fszU3k,,4.7,restaurant,867,"Cara Lazara 39, Futog"
275,45.2406662,19.7358208,Породица Ћулум - пољопривредно газдинство,ChIJJ-HwqvsNW0cR9ukeJeIrgD0,,3.8,restaurant,49,"Banjalučka 71, Futog"
276,45.2386971,19.6974049,Moja Mala Kuhinja,ChIJfwWMFZkNW0cRVAS-u92YIb8,1,4.8,restaurant,699,"6 Carice Milice, 21410, Futog, Južno-bački okrug"
277,45.2444902,19.727304,Restoran Kurjak Futog - Novi Sad,ChIJ7xryavQNW0cRy8ObYd-VmFU,2,4.5,restaurant,367,"Rumenačka, Futog"
278,45.2082199,19.7218127,Fast Food Kod Luke,ChIJGXI2fMYNW0cR1wMwkdv929o,,4.6,restaurant,8,"Kralja Petra Prvog BB, Beočin"
279,45.2085648,19.7228622,Caffe Bar Brazil - Gril,ChIJFVvRc4UNW0cRKQ8TEKf5fLM,2,4.5,restaurant,134,"Kralja Petra I B1, Beočin"
280,45.2086584,19.7226215,Кафе Ресторан Кошница,ChIJ43uGGJcNW0cRwUycER8uGLE,,4.9,restaurant,36,"Trg Cara Lazara, Beočin"
281,45.2086841,19.7223486,Bolero,ChIJU8URYyoMW0cRFGDylFhhcgU,2,4.5,restaurant,142,"Kralja Petra I B1, Beočin"
282,45.2085455,19.7219048,Rolle Grill-Pizzeria,ChIJY1nJO_YHW0cR3dA9oH2_pKU,,4.8,restaurant,30,"Trg Cara Lazara 23, Beočin"
283,45.2081685,19.7208918,Roštilj Frend,ChIJXTnRyMwNW0cRJstwPU-5y2Y,,3.5,restaurant,6,"Dunavska, Beočin"
284,45.2146214,19.7173515,Restoran Svanuce,ChIJs5LZ_9INW0cR2F195l1sL14,2,4.4,restaurant,134,"Industrijska 10, Беочин"
285,45.18696829999999,19.7724136,Fig Restaurant,ChIJhdRyzUcPW0cRDNeMaWiOJb0,,5,restaurant,26,"Manastirska, Rakovac"
286,45.2351612,19.713219,Splav Plavi Dunav,ChIJTVdcBlcNW0cRmw55HV0pB0o,,4.7,restaurant,307,Futog
287,45.1810344,19.7707011,Ресторан Пећина Раковац,ChIJLSUYTl4PW0cRnqlDHCnAGoM,,4.4,restaurant,33,"313, Rakovac"
288,45.2347674,19.7091753,Mikina carda,ChIJOdXYu5UNW0cRpu-HqVlnj8k,,4.5,restaurant,42,Novi Sad
289,45.236149,19.7059734,Lola,ChIJ86ItipYNW0cRvpHGzHz-usQ,,,restaurant,,"1 FRUŠKOGORSKA, 21410, Futog, Južno-bački okrug"
290,45.239434,19.7268031,Joca I Nidza,ChIJ_3sTpZQNW0cRIgIhGad1H_w,,4.2,restaurant,62,"220 CARA LAZARA, 21410, Futog, Južno-bački okrug"
291,45.23736330000001,19.70836500000001,BUONGIORNO LOLA,ChIJn6B_JpQNW0cR2I6a_GsM27Q,1,4.7,restaurant,39,"Cara Lazara 47, Futog"
292,45.2374191,19.7083339,Picerija Buongiorno Futog,ChIJ33dPppYNW0cRW9vjOF6Kxxo,2,4.6,restaurant,504,Futog
293,45.23734049999999,19.707276,Master Food-Brza Hrana,ChIJPaQZYu0NW0cRXW8bjS16KZw,,5,restaurant,5,"Cara Lazara 44, Futog"
294,45.2375315,19.7071948,Korzo Restaurant / Hotel / Cafe,ChIJ2eoWx5YNW0cR7O336_l28bI,2,4.6,restaurant,489,"Cara Lazara 39, Futog"
295,45.23788829999999,19.7022691,Picerija URON,ChIJYylFIEsNW0cR8oCLfxzIcyE,,4.5,restaurant,53,"Cara Lazara 10, Futog"
296,45.2379671,19.7017313,Lovac,ChIJXSyA35kNW0cRBYAO5H6hL1s,2,4.4,restaurant,360,"Cara Lazara 6, Futog"
297,45.23786589999999,19.7008476,Hamburgerija Kod Neše,ChIJn__mK_oNW0cRAD-PhXnv1JQ,,4.7,restaurant,47,"Cara Lazara ББ, Futog"
298,45.2380257,19.701289,Gyros Weis,ChIJ56sr520NW0cRdNqNBZ6Z_9g,,4.8,restaurant,21,"Cara Lazara 2, Futog"
299,45.2380699,19.7007604,6.25,ChIJzzUn_uENW0cR6eOIn7BxNFc,,4.6,restaurant,14,"Cara Lazara bb, Futog"
300,45.2430082,19.7209642,Futog,ChIJ-3DWKacNW0cRsyKfoULQaCQ,,4.7,restaurant,15,"12, Futog"
301,45.2431793,19.7333183,"Restoran kod ""Zice""",ChIJFxI1sPANW0cRLDQBhSevXDM,,4.5,restaurant,139,"Vojvode Mišića 21, Futog"
302,45.2432348,19.7189916,Picerija Maroko,ChIJf_psfEwNW0cRT8o6NqwD3p4,,4.4,restaurant,13,"Industrijska 58, Futog"
303,45.22850140000001,19.7748572,Bata Pežo - Restoran,ChIJuxV8eDsOW0cRJ2_RmzK8wmU,2,4.5,restaurant,1432,"Kamenjar 5, Novi Sad"
304,45.2395432,19.7565122,Замак и печењара,ChIJ45OB4FcPW0cRpbOupk6Vj3o,,4,restaurant,3,"Leptirova 6, Veternik"
305,45.2347131,19.7669936,Sala za svadbe Restoran Poljubac,ChIJQ5tJqxkOW0cR7Lx8g1nxzeQ,,4,restaurant,77,"Nova 1, Veternik, Novi Sad"
306,45.235023,19.7673306,Lipov Gaj Svečana sala,ChIJWZy6M1sPW0cRnCwQVPHtpyw,,4.4,restaurant,269,"Nova 1 bb, Novi Sad"
307,45.28969379999999,19.7451891,B2 Aqwa Clean,ChIJH-_r5LMTW0cR_aIGenI4KzM,,4.2,restaurant,6,"Adi Endrea 3, Rumenka"
308,45.2586475,19.7000728,Rodin salaš,ChIJTRXl0IASW0cRh-OtEwNjU_Y,2,4.7,restaurant,57,"Železnička, Futog"
309,45.2444902,19.727304,Restoran Kurjak Futog - Novi Sad,ChIJ7xryavQNW0cRy8ObYd-VmFU,2,4.5,restaurant,367,"Rumenačka, Futog"
310,45.2406662,19.7358208,Породица Ћулум - пољопривредно газдинство,ChIJJ-HwqvsNW0cR9ukeJeIrgD0,,3.8,restaurant,49,"Banjalučka 71, Futog"
311,45.238115,19.7264995,Restoran Kesten,ChIJA9ZY8-wNW0cRTRWldaihwX0,2,4.6,restaurant,452,"Cara Lazara br. 190, Futog"
312,45.237534,19.70698,Restoran Marina / Hotel,ChIJCUQvx5YNW0cRzGro5fszU3k,,4.7,restaurant,867,"Cara Lazara 39, Futog"
313,45.2928771,19.7408962,Gyros Royal,ChIJMy1Hrw0TW0cRIgS7JNa2CxU,,4.7,restaurant,166,"Oslobodjenja 35b, Rumenka"
314,45.2927407,19.741449,Bakine Djakonije,ChIJb8Z2gcYTW0cRMj0WDP_6410,,,restaurant,,Rumenka
315,45.29217699999999,19.7428906,"Pekara ""NS Afrodita""",ChIJvURtEbATW0cRoWe7xjoXJ4A,,5,restaurant,7,"Oslobodjenja 25, Руменка"
316,45.29307439999999,19.7412335,Tropikana Igraoica i Rodjendaonica,ChIJM73hOS0TW0cR5v8f96rq1Co,,5,restaurant,2,"Arsenija Čarnojevića 35, Rumenka"
317,45.29307439999999,19.7412335,Tropikana Restoran,ChIJI7vf880TW0cRscXE32BEglc,2,4.7,restaurant,200,"Arsenija Čarnojevića 35, Rumenka"
318,45.2923384,19.7428399,Veljko's Grill,ChIJ8bZp5vFxWkcR8MT19T1ekks,,4.8,restaurant,9,"Oslobođenja 26, Rumenka"
319,45.2914199,19.7455253,Restoran Lunch88 ( Ketering ),ChIJtz0pdKkTW0cRPbpElKR85ww,,4.4,restaurant,110,"Oslobodjenja 20a, Rumenka"
320,45.2955995,19.7384865,KAFE RESTORAN KALE,ChIJj1FWYa8TW0cRmNnJt5NYNj0,,2.3,restaurant,9,"Partizanska 65, Rumenka"
321,45.2925769,19.7483085,Ketering Pizzeria Bocelli,ChIJhXZcW6UTW0cRcy9owoncUC8,,,restaurant,,"Petefi Šandora 2, Novi Sad"
322,45.297882,19.7392082,Zlatno Zvonce,ChIJ5QrcsKUTW0cREWr_quYZn7o,2,4.8,restaurant,71,"108 PARTIZANSKA, 21201, Rumenka, Južno-bački okrug"
323,45.2951451,19.7479413,Pizzeria Sombastik,ChIJR9NAg2wTW0cR5-kX0VsUcxs,1,4.8,restaurant,93,"Jovana Jovanovića Zmaja, Rumenka"
324,45.30146989999999,19.7431233,"Čarda ""Zlatno Zvonce""",ChIJQ49CvaMTW0cRHxgjEF-kD3U,2,4.6,restaurant,776,"Partizanska 108, Rumenka"
325,45.2556249,19.7525793,Prirodna hrana,ChIJR-n3U1wQW0cRSQVWdofY--M,,,restaurant,,"Vuka Karadžića 50, Veternik"
326,45.2541231,19.754709,Laki,ChIJTwrCtgISW0cRpcp8r4zPMr8,,4.7,restaurant,15,"Kralja Aleksandra 40, Veternik"
327,45.2473411,19.7406425,Pardija,ChIJ33IHHwESW0cRYX6xiIxTPqM,2,4.5,restaurant,533,"Ive Lole Ribara 52/a, Veternik"
328,45.3092587,19.7426462,Sašin Salaš,ChIJv4C8zu4TW0cRNTluTCACb08,2,4.7,restaurant,278,"113, Rumenka"
329,45.2469027,19.7408595,Korean street fast food,ChIJgScSyV4NW0cR30DuEDWjOqc,,,restaurant,,"Ive Lole Ribara 51, Novi sad"
330,45.2484366,19.7469941,Restoran Pampas,ChIJgYary1ITW0cR5SWo3gY7HO4,,,restaurant,,"1 IVE LOLE RIBARA, 21203, Veternik, Juzno-backi county"
331,45.2481422,19.7472972,Krcma Veternik,ChIJz_UeagcSW0cR2BsYh1Yqgu8,1,4.3,restaurant,115,"Ive Lole Ribara 24, Veternik"
332,45.2516753,19.7558163,Boom Pizza,ChIJjUY6NmEQW0cRE0LaCvXlDgo,1,4.1,restaurant,88,"Kralja Aleksandra 22, Veternik"
333,45.2484436,19.7486991,Kloperaj RADIĆ roštilj na ćumuru,ChIJS-mfv-sTW0cR06xYirUM28E,1,4.6,restaurant,161,"Ive Lole Ribara 19, Veternik"
334,45.2530283,19.7594923,"Zum grüne Baum Deutschland,Bad Homburg",ChIJwwUWGkIRW0cRuLthsEcQz1s,,,restaurant,,"Radnička, 07Veternik"
335,45.2478031,19.748533,M Food Magacin,ChIJKwtlg-4TW0cRcBylccBzYj0,,5,restaurant,2,"Kninska 38, Veternik"
336,45.25442169999999,19.7624651,Mali Šef,ChIJWzG_yyERW0cRCdE3LpT9lgA,,4.6,restaurant,17,"Kralja Petra I 22b, Veternik"
337,45.25442169999999,19.7624651,DOMAĆE PITE URANAK,ChIJjZuoOlERW0cRfBCYJq0OFdI,,4.6,restaurant,26,"Kralja Petra I 22b, Veternik"
338,45.2515242,19.7580173,Postavi sto - hrana za poneti,ChIJ45clunsRW0cRwov5o0tsrbg,,5,restaurant,3,"Vojvode Bojovića 2, Veternik"
339,45.25254169999999,19.759866,Roma pizza,ChIJ8f8NUHQRW0cR6ZXj2e-TZaA,,4,restaurant,1,"Kralja Petra I 11/1, Kaluđerica"
340,45.2501954,19.7558582,Обилић,ChIJmcn9wvgRW0cRGrm7Nc0n4CI,1,4.2,restaurant,40,"Kralja Aleksandra 1, Veternik"
341,45.2545152,19.7629274,Korner,ChIJPxri2kcRW0cR7bcbYeqxuxE,,,restaurant,,"Kralja Petra I 22, Veternik"
342,45.2544593,19.7628517,Pizza BOSSI,ChIJHR8xO_cRW0cRYViW8DLZ4Lo,,4.3,restaurant,199,"Kralja Petra I, Veternik"
343,45.2493924,19.7547307,Restoran Javor NS,ChIJaSnkMv8RW0cR7YmTWycsKTY,2,4.5,restaurant,709,"4, Ive Lole Ribara 1a, Veternik"
344,45.2431793,19.7333183,"Restoran kod ""Zice""",ChIJFxI1sPANW0cRLDQBhSevXDM,,4.5,restaurant,139,"Vojvode Mišića 21, Futog"
345,45.2432348,19.7189916,Picerija Maroko,ChIJf_psfEwNW0cRT8o6NqwD3p4,,4.4,restaurant,13,"Industrijska 58, Futog"
346,45.2430082,19.7209642,Futog,ChIJ-3DWKacNW0cRsyKfoULQaCQ,,4.7,restaurant,15,"12, Futog"
347,45.25024260000001,19.7583922,Rio grill - caffe,ChIJsTDRvj8RW0cRrKI3Yax6pK0,,5,restaurant,1,"Milana Tepića 1a, Veternik"
348,45.2511742,19.7616197,"Pekara ""Maffin 021""",ChIJW1omm_oRW0cRS8nS7CZgDV8,,5,restaurant,2,"Vojvode Mišića 28, Veternik"
349,45.2751136,19.779638,Vizantija Promet,ChIJNT5w6YMRW0cRZHNu5hq3Yk0,,5,restaurant,1,"41/a GORNJE SAJLOVO, 21000, Novi Sad, Juzno-backi county"
350,45.2763593,19.7803692,Prica,ChIJ1cspzYMRW0cRo1KzxPa8jOc,,4.5,restaurant,4,"1/a Sajlovo XXI, 21000, Novi Sad, Južno-bački okrug"
351,45.239434,19.7268031,Joca I Nidza,ChIJ_3sTpZQNW0cRIgIhGad1H_w,,4.2,restaurant,62,"220 CARA LAZARA, 21410, Futog, Južno-bački okrug"
352,45.25047499999999,19.7658198,Restoran Kod Duće,ChIJmZtOtvwRW0cR1vIVscXPR2w,2,4.7,restaurant,1806,"Tri bagrema 20, Veternik"
353,45.2505056,19.7662195,Novi Sad baran restauracja,ChIJIwn-DrkRW0cRwn8RzjwIl54,,,restaurant,,"Stevana Peci Popovića 25, Veternik"
354,45.271672,19.7822868,Roštilj Zlatni Ražanj,ChIJ72iAW9ERW0cR9h_PB25MijY,,4.9,restaurant,11,"Mare Branković, Novi Sad"
355,45.3125176,19.75565049999999,Sasin salas,ChIJaWG761gTW0cREjno5Vrkiuo,,5,restaurant,1,"113, Rumenka"
356,45.2473384,19.7653234,Tip Top BR. 1,ChIJB40HquQRW0cRTN5J29PL_zA,,3,restaurant,1,"85A NOVOSADSKI PUT, 21203, Veternik, Južno-bački okrug"
357,45.2744464,19.7856326,Sala za proslave - restoran Kameleon,ChIJ488o7eARW0cRFprtzK2AS4M,,,restaurant,,"Donje Sajlovo 96, Novi Sad"
358,45.2516796,19.7724483,Picerija PIZZICATO Novi Sad,ChIJ5XczzfsRW0cRd9txajqsuzM,,4.9,restaurant,10,"Dragoslava Srejovića 56, Veternik"
359,45.2472339,19.7663223,Ognjište Veternik - Roštilj iz Leskovac,ChIJjaXdOs8RW0cR-ku8b42VCD0,2,3.9,restaurant,91,"Novosadski put 19, Veternik"
360,45.2473068,19.7665725,RESTORAN PAMPAS,ChIJ8cDxW-QRW0cRCm_Hj1syg3A,,3.3,restaurant,8,"Novosadski put 19, Veternik"
361,45.2480872,19.768385,Pecenjara Radic,ChIJR08wk-QRW0cRB9-GL4jgGUE,,4.5,restaurant,2,"Vladimira Matijevića 10, Veternik"
362,45.2471118,19.7678924,KALIN ROŠTILJNICA,ChIJ0zvqmvgRW0cRNYmLzxxQ2nU,2,4.5,restaurant,121,"Novosadski put 31, Veternik"
363,45.2374191,19.7083339,Picerija Buongiorno Futog,ChIJ33dPppYNW0cRW9vjOF6Kxxo,2,4.6,restaurant,504,Futog
364,45.23736330000001,19.70836500000001,BUONGIORNO LOLA,ChIJn6B_JpQNW0cR2I6a_GsM27Q,1,4.7,restaurant,39,"Cara Lazara 47, Futog"
365,45.24681229999999,19.76899359999999,Restoran Travica,ChIJ86hDf-QRW0cR7KgWuFxJwD4,2,4.4,restaurant,134,"Novosadski put 41, Veternik"
366,45.2375315,19.7071948,Korzo Restaurant / Hotel / Cafe,ChIJ2eoWx5YNW0cR7O336_l28bI,2,4.6,restaurant,489,"Cara Lazara 39, Futog"
367,45.2766463,19.825785,McDonald’s Big Cee,ChIJnQFRQwIRW0cROamYcvjuff8,2,4,restaurant,1012,"Sentandrejski put 11, Novi Sad"
368,45.2766054,19.8257987,KFC Novi Sad Big Fashion,ChIJyQfdOwIRW0cRvLFWhH7EpWg,,4.2,restaurant,1667,"Big CEE tržni centar, prvi sprat, Sentandrejski put 11, Novi Sad"
369,45.2730873,19.8338235,Carpaccio Food & Beer Bar,ChIJH-d0S_kQW0cRIp2HyfYdLxw,,3.8,restaurant,9,Novi Sad
370,45.2922883,19.8305959,Sunce,ChIJZ1TjryMRW0cR7Y_7c-QdRmE,,3.6,restaurant,7,"55 TEMERINSKI PUT, 21000, Novi Sad, Južno-bački okrug"
371,45.2650125,19.8315546,McDonald’s Park,ChIJW1TWK1cQW0cREg-6FGy3lYQ,2,4.2,restaurant,3962,"Bulevar Jaše Tomića бб, Novi Sad"
372,45.26510890000001,19.8367468,Гостиона Миша,ChIJxTuEv1kQW0cRsSM_3u4m-ss,1,4.4,restaurant,245,"Kisačka br. 56, Novi Sad"
373,45.26240629999999,19.8185886,Кућа кобасице,ChIJJaXVVK0RW0cRjH4tT3z-lUw,,4.4,restaurant,827,"Rumenačka 33, Novi Sad"
374,45.2618637,19.8311481,Minuta,ChIJTzDy81AQW0cR3FiEusNwUhk,,4,restaurant,433,"Bulevar oslobođenja 12 - 16, Novi Sad"
375,45.259798,19.82165699999999,SKOČKO,ChIJ17dgsE0QW0cRMRUiqnaMnuc,2,4.4,restaurant,1030,"9, Rumenačka 21000, Novi Sad"
376,45.2607103,19.8333861,Бар „Скеч”,ChIJaUeeHVAQW0cRjfMU6paNjYI,2,4.5,restaurant,1041,"Bulevar kralja Petra I 15, Novi Sad"
377,45.2611076,19.8329251,Чика Перо / Čika Pero,ChIJ-X_8mVoQW0cR9amE8GOoGsk,2,4.5,restaurant,771,"Bulevar kralja Petra I 22, Novi Sad"
378,45.25903150000001,19.8243183,Bubi Grill,ChIJK4GtZE4QW0cRN2CXRy-m53Q,1,4.1,restaurant,457,"Bulevar kralja Petra I 95, Novi Sad"
379,45.2599659,19.83291909999999,Restaurant & Pizzeria Savoca,ChIJ9aM2dFAQW0cRkIJV3aBCxFU,2,4.4,restaurant,2389,"Bulevar oslobođenja 41, Novi Sad"
380,45.25870889999999,19.816904,My Way caffe restoran,ChIJtZ0uu0wQW0cRmC4BPntkw-4,,4.8,restaurant,62,"Ilije Birčanina 21, Novi Sad"
381,45.2587802,19.8131968,čombilend grand,ChIJW9xTebMRW0cRoiga_n_sGbc,2,4.4,restaurant,378,"Koste Racina 16, Novi Sad"
382,45.257994,19.815065,Milanello,ChIJMb1OqLMRW0cRc6d8W7XVtk4,2,4.5,restaurant,689,"Dr Svetislava Kasapinovića 17, Novi Sad"
383,45.25741319999999,19.81739,Caribic Pizza,ChIJ52gfYksQW0cRJoKdYiMxOY0,2,4,restaurant,824,"Hadži Ruvimova 21, Novi Sad"
384,45.25912719999999,19.8356908,Pizzeria Ciao,ChIJqyUmh2gQW0cRPcAqDdhBjkI,2,4.4,restaurant,5437,"Braće Jovandić 1, Novi Sad"
385,45.2605206,19.8179653,Srpski Akademski Centar,ChIJ___vMU0QW0cRytjQEZ-gnSU,,,restaurant,,"Stevana Mokranjca 18, Novi Sad"
386,45.2576602,19.8153493,"Национална кућа""Сач""",ChIJobpIq7QRW0cRO2A2Jv9-tgs,,4.7,restaurant,43,"Dr Svetislava Kasapinovića, Novi Sad"
387,45.2575437,19.8154116,Nacionalna Kuca Pet +,ChIJfV9aarMRW0cRrYnlzcQ4RlE,2,4.6,restaurant,119,"Dr Svetislava Kasapinovića 15, Novi Sad"
388,45.257254,19.8166958,Vivaldi-krstic Poslasticarnica,ChIJV6DrXksQW0cRONmpDwXLfP0,,4.9,restaurant,16,"Hadži Ruvimova 31, Novi Sad"
389,45.258084,19.811843,Palačinkarnica Nirvana | Dostava hrane,ChIJEYtffLQRW0cRn82OXFBgrJA,1,4.6,restaurant,263,"Koste Racina 27, Novi Sad"
390,45.2576435,19.8333907,De Gusto,ChIJ41PD_EQQW0cR2gRXK9lEfUE,2,4.4,restaurant,1446,"Bulevar oslobođenja 48, Novi Sad"
391,45.289288,19.830987,"Jet Set Novi Sad - sobe, prenoćište, polupansion, pansion, smeštaj",ChIJN-pBACIRW0cRvewh-ayt5Rw,2,3.6,restaurant,255,"Temerinski put, Novi Sad"
392,45.2844387,19.8299285,Surabaya Indonežanski-kineski restoran,ChIJN_PcJhwRW0cR4n0vL1GGsyE,2,4.7,restaurant,681,"Primorska 26, Novi Sad"
393,45.2592419,19.8182695,DOMINO,ChIJKfxX2UwQW0cRHdI4Te01JjQ,1,4.5,restaurant,451,"7, Stevana Mokranjca 21000, Novi Sad"
394,45.2766201,19.8257877,Pizerija Totto,ChIJHROvNQIRW0cRQDkogjNoCwQ,,3.6,restaurant,27,"Sentandrejski put 11, Novi Sad"
395,45.2765669,19.8257669,Walter BBQ,ChIJLT8_kXMRW0cRUvhZuS14h74,2,3.2,restaurant,115,"Sentandrejski put 11, Novi Sad"
396,45.276658,19.8263563,MACCHIATO BIG,ChIJ06wSFD0RW0cRf5ngNZEyPMk,2,4.4,restaurant,1041,"Sentandrejski put 11, Novi Sad"
397,45.2756467,19.8259349,Totto - brza hrana,ChIJaX7A-J4RW0cRxsKSLuQiM10,,3.5,restaurant,13,"Sentandrejski put 11, Novi Sad"
398,45.27473099999999,19.8263501,Kamion Food Truck,ChIJ4aQMKmsRW0cRGXPpgYjcuBY,,4.9,restaurant,115,"BIG Novi Sad, Sentandrejski put 11, Novi Sad"
399,45.2750587,19.8287748,Nacionalna klasa,ChIJNSyTCuURW0cR-VLBNMh5NjQ,2,4.4,restaurant,2833,"Sentandrejski put, Novi Sad"
400,45.2720299,19.8189814,Bistro MNA,ChIJtbdzDzsRW0cRHx9Oq0dvfIw,,3,restaurant,2,"Put novosadskog partizanskog odreda 5, Novi Sad"
401,45.2860677,19.822651,Gurmanke,ChIJU7xC9xkRW0cRVtMVe5l_n2M,,4,restaurant,2,"20 Nizijska, 21000, Novi Sad, Južno-bački okrug"
402,45.2845294,19.830443,Bella ciao,ChIJv6qY95URW0cR4nrga8FUJo8,,4.7,restaurant,39,"Primorska 22b, Novi Sad"
403,45.28457650000001,19.8311606,HIT GRILL rostilj,ChIJG55_SdoRW0cRY9LHt-WXzEU,,5,restaurant,1,"Primorska 18, Novi Sad"
404,45.28457650000001,19.8311606,Balkan Ćevabdžinica,ChIJ1VvDejURW0cRERcXU3H2rIQ,,4.4,restaurant,16,"Primorska 18, Novi Sad"
405,45.2846798,19.8315879,Tema Palačinke,ChIJo5HuR5sRW0cRoPZ2xaiKyI4,,5,restaurant,10,"Primorska 12, Novi Sad"
406,45.2847357,19.8316982,"Ur bife ""Nina Aiž""",ChIJJdQgl-ERW0cRgQFfptVAoXU,,4.6,restaurant,5,"Primorska 12, Novi Sad"
407,45.2701232,19.8264968,Atina,ChIJU4YK9qERW0cRbMQxZWFZ8-M,,4,restaurant,1,"Kisački put 3, Novi Sad"
408,45.2847675,19.8318266,KUHINJICA 021,ChIJh5JhFNoRW0cRPh9aPRaxL8Q,,5,restaurant,3,"Primorska 10, Novi Sad"
409,45.2847577,19.8318879,Pizza plus,ChIJYzKXsKgRW0cRN178BphD9Cs,,4.6,restaurant,348,"Primorska 10, Novi Sad"
410,45.28276289999999,19.8346407,Gril Mimi 021,ChIJI61MnM4RW0cRarL9jMCZkGQ,,4.6,restaurant,24,"Temerinska 175, Novi Sad"
411,45.2849082,19.8327454,Krcmar,ChIJGwMeIzURW0cRrkG6dJedaS4,,4.5,restaurant,2,"Primorska 2-8, Novi Sad"
412,45.2850991,19.8331861,Pecenjara 021,ChIJcyGBq_QRW0cRmjvboBPlhL8,,4.2,restaurant,12,"Temerinski put 1, Novi Sad"
413,45.2888335,19.8245683,Rostilj Kod Dese,ChIJo-WiRD0RW0cROQBByDoGfFg,1,4.8,restaurant,185,"Sentandrejski put 51, Novi Sad"
414,45.28916479999999,19.82443,Gyros Meraki GYROS & PALAČINKE,ChIJf_866nYRW0cRIzTerBmda00,,4.2,restaurant,5,"Sentandrejski put 57, Novi Sad"
415,45.2723477,19.8353487,Djosla fast food,ChIJK4qNw0MRW0cRQ8QDWme9_ms,,4.8,restaurant,46,"Šajkaška 42, Novi Sad"
416,45.2698974,19.8321971,Hotel ELEMENT Novi Sad,ChIJu-FdR4IRW0cRceo_1Pdx4M4,,4.9,restaurant,40,"Partizanska 64A, Novi Sad"
417,45.2771477,19.83857159999999,Slavija,ChIJ_9XQPvsQW0cRgjitklFOWzw,,3,restaurant,1,"121 TEMERINSKA, 21000, Novi Sad, Juzno-backi county"
418,45.2771477,19.83857159999999,Sedmica 04,ChIJ_9XQPvsQW0cR-x_teLyn3nM,,,restaurant,,"176 TEMERINSKA, 21000, Novi Sad, Južno-bački okrug"
419,45.269715,19.83276859999999,Cafe & Resto bar ELEMENT,ChIJ1cEqDUsRW0cR6YoUZaSfLmQ,,5,restaurant,2,"Partizanska 64A, Novi Sad"
420,45.2722302,19.8361081,Akvarijum kod Mire,ChIJgVlDx9kRW0cREw7HQWUGyps,,5,restaurant,5,"Šajkaška 32-40, Novi Sad"
421,45.2716481,19.8362186,Index Lela,ChIJNwAyhJoRW0cRY-nhvPIkcTo,,5,restaurant,2,"Đorđa Zličića 50, Novi Sad"
422,45.2903051,19.819513,Danguba,ChIJl8sWPhYRW0cREPomE9hwBtU,,,restaurant,,"77 KLISANSKI PUT, 21000, Novi Sad, Južno-bački okrug"
423,45.2906872,19.8246246,Фортуна 021,ChIJFZj7Uz0RW0cR22n31Dj1UeY,2,4.5,restaurant,620,Novi Sad
424,45.2906951,19.8266341,Место добре хране „Зврк“,ChIJ8WX3BXwRW0cRSVOMa5ZWPSY,,5,restaurant,18,"Čenejska 70, Novi Sad"
425,45.26613039999999,19.8201466,Kafana-restoran Naša Priča,ChIJV0ORpaoRW0cR2sUwWCSp4Cw,2,4.3,restaurant,410,"Industrijska, Novi Sad"
426,45.2898593,19.830683,BIG CHICKEN GRILL,ChIJQxah0eIRW0cRGzfiSJFcDoM,,4.2,restaurant,55,"Temerinski put 47, Novi Sad"
427,45.2586006,19.8457403,Hotel and restaurant Fountain,ChIJocmNkmcQW0cRbWiL3n-lrxs,,4.6,restaurant,1945,"Nikole Pašića 27, Novi Sad"
428,45.25139859999999,19.8418709,Macchiato Kuća,ChIJCybxWKARW0cRZX0VgMmdUJo,2,4.6,restaurant,571,"Železnička 10, Novi Sad"
429,45.2547962,19.8625775,Picerija Restoran Square Petrovaradin,ChIJ70WoBHoQW0cRAJR5GIdoqfI,2,4.6,restaurant,432,"Beogradska 19, Petrovaradin"
430,45.2531299,19.8615653,Terasa,ChIJ4chAynAQW0cRxmSPY_DaTHE,2,4.5,restaurant,3601,Petrovaradin
431,45.252998,19.8615536,Restaurant „Clock”,ChIJ9bv4y3AQW0cRJZpVHURxWks,2,3.5,restaurant,540,"Тврђава, Петроварадин 21131, Petrovaradin"
432,45.2539862,19.854151,New Jamon,ChIJ78bV3G8QW0cR2BhM_u6saX0,2,4.6,restaurant,589,"6, Trg Neznanog junaka 21000, Novi Sad"
433,45.25211900000001,19.8520965,Restoran Forum,ChIJt327bG4QW0cR80KYDG2Xaus,1,4.4,restaurant,297,"3 Vojvode Mišića 21000, Novi Sad"
434,45.25736080000001,19.8489985,Kuća kobasice,ChIJcf-KPWYQW0cRrBNn-6pXVks,1,4.4,restaurant,1149,"Trg republike 6, Novi Sad"
435,45.2557092,19.849378,Salad Bar Čaplin,ChIJyemltGgQW0cRfV_VH4eSaIA,,,restaurant,,"Pasaž Ise Bajića I Dunavkse 6, Novi Sad"
436,45.2546834,19.8460869,Pizzeria Caribic,ChIJc2fm4WgQW0cRu6e-k1iDNPk,2,4,restaurant,1767,"prizemlje i prvi sprat, Modene, Novi Sad"
437,45.255626,19.8480915,Ленкина Башта,ChIJebe7uGgQW0cR0wvGbHsmoro,,,restaurant,,"Ilije Ognjanovića 8, Novi Sad"
438,45.256846,19.847564,Etno restoran Stara Pesma Novi Sad,ChIJIQxrKZENW0cRJfZE3BiNZmM,2,4.1,restaurant,216,"Zmaj Jovina 21, Novi Sad"
439,45.2499698,19.8512764,Pascal,ChIJqQvKk20QW0cR6hhmL-7KlOE,2,4.7,restaurant,810,"Radnička 22, Novi Sad"
440,45.2564531,19.8470988,Corso Café & Restaurant,ChIJN2JOhWgQW0cRi1bYHqDl_K8,2,4.4,restaurant,3136,"Zmaj Jovina 17, Novi Sad"
441,45.2555109,19.8468118,Pivnica Gusan,ChIJWZMWKGYQW0cRJHt32SAPfxA,2,4.5,restaurant,3452,"Zmaj Jovina 4, Novi Sad"
442,45.2515447,19.8472095,Palačinkarnica Pinokio NS,ChIJUUWJD2wQW0cR0dNimpyRCbI,,4.6,restaurant,230,"Stražilovska 1, Novi Sad"
443,45.2557722,19.8465151,Kafe Restoran Maša,ChIJRUMSKGYQW0cR6TsNNN8fSBA,2,4.5,restaurant,2600,"Zmaj Jovina 4, Novi Sad"
444,45.2569367,19.8461781,Pepper pizza bar,ChIJlV9jeWgQW0cRlIHsTK1Gxgc,2,4.4,restaurant,859,"Svetozara Miletića 17, Novi Sad"
445,45.256353,19.8461205,Lazin Salaš,ChIJZWjSY2gQW0cRfxOXOpDL6vw,2,4.5,restaurant,2836,"Laze Telečkog 5, Novi Sad"
446,45.25480779999999,19.8465654,TETAK indeks sendvic Novi Sad,ChIJo37qH2kQW0cRv6lVYqctPF8,,4.1,restaurant,323,"Modene 3, Novi Sad"
447,45.25436490000001,19.84639,Petrus Caffe,ChIJjT8hGWkQW0cRXIisH08gUw0,2,4.7,restaurant,7268,"Modene, Novi Sad"
448,45.2538115,19.8464853,Index House 021,ChIJD1Sm3GgQW0cR9DGRl_LwD54,1,3.5,restaurant,754,"Bulevar Mihajla Pupina, Novi Sad"
449,45.2555693,19.8451281,Loft Downtown,ChIJ-TmuRWgQW0cRkIZKPkMm8no,2,4.7,restaurant,3614,"Njegoševa 2, Novi Sad"
450,45.2569187,19.8447314,Giros Land,ChIJ9RdiDWgQW0cRCqfLkU5Hb9Q,2,4.3,restaurant,1141,"23 LAZE TELEČKOG, 21000, Novi Sad, Južno-bački okrug, Novi Sad"
451,45.2503051,19.8476138,Stevča Ekspres,ChIJCeYlQ2wQW0cRwQS4AKIZdvE,2,4.4,restaurant,835,"Maksima Gorkog 17a, Novi Sad"
452,45.2559319,19.844675,Gradska pivnica,ChIJJ7oRP2gQW0cR8dmWBSuIa-s,2,4.7,restaurant,2425,"Njegoševa 6, Novi Sad"
453,45.2482425,19.8492827,Celer Superfood,ChIJo8AqBW0QW0cRbxaIKqM5GZw,2,4.4,restaurant,845,"Stražilovska 37, Novi Sad"
454,45.256055,19.844635,Toster Bar,ChIJCcBil2gQW0cR8dCGHd3nO14,2,4.7,restaurant,4076,"Njegoševa 10, Novi Sad"
455,45.25620259999999,19.8442993,Pancetta,ChIJBz9iPmgQW0cRojETkkYyy5w,2,4.3,restaurant,942,"Njegoševa 12, Novi Sad"
456,45.2562359,19.8442372,Barrique Gastropab,ChIJr6R-PmgQW0cRqUuHlcUKV1M,2,4.4,restaurant,1072,"Njegoševa 12, Novi Sad"
457,45.2541982,19.8448373,Palacinkarnica Walt Disney,ChIJydOBqWkQW0cROaz4nF1TE-A,1,4.5,restaurant,379,"Kralja Aleksandra 1, Novi Sad"
458,45.25945890000001,19.8428877,BigPizza,ChIJNXn7OV0QW0cR8GeCrPq9PTI,,3.3,restaurant,336,"Jovana Subotića 18, Novi Sad"
459,45.2430432,19.8535177,Indeksova Tribina,ChIJv2k3cAwQW0cR9szsRT73u-E,2,4.4,restaurant,822,"Jirečekova bb, Novi Sad"
460,45.2494513,19.8444729,Gazprom Petrol - Novi Sad 1,ChIJQWoaLGsQW0cRKi6bctoR5DM,,4.4,restaurant,1124,"Maksima Gorkog 1b, Novi Sad"
461,45.2561198,19.846901,Svečana sala Kruna,ChIJzbQn82gQW0cRKyGDQersAng,,,restaurant,,"Zmaj Jovina, Novi Sad"
462,45.2487792,19.8484876,Koliba,ChIJVVVBG20QW0cRYTGDt6Q5ye8,2,4.8,restaurant,250,"Stražilovska 14, Novi Sad"
463,45.2597773,19.8491088,Restoran Kafanica,ChIJ4-vM_GYQW0cRAsepSXgtQz0,2,4.6,restaurant,363,"Đorđa Jovanovića 2, Novi Sad"
464,45.25373839999999,19.8505535,Gondola,ChIJ9WpM424QW0cRgMPaN2TYQ0o,2,4.6,restaurant,2440,"Bulevar Mihajla Pupina 18, Novi Sad"
465,45.2547621,19.8502026,Restoran Pasha,ChIJg2SiO28QW0cRTX4EHWmL1dY,2,4.5,restaurant,237,"Pionirska, Novi Sad"
466,45.2587517,19.8462443,Fish & Zeleniš,ChIJWw1qlGcQW0cRhBxAAVX0JGU,2,4.7,restaurant,1238,"Skerlićeva 2, Novi Sad"
467,45.256386,19.8500526,Lanterna,ChIJA3o9VW8QW0cR98Keim_6eUI,2,4.6,restaurant,2703,"Dunavska 27, Novi Sad"
468,45.2522937,19.8720256,Da Mario Plus,ChIJgeBQc5saW0cRVKQi6R0uCkU,2,4.5,restaurant,506,"Čajkovskog 2, Petrovaradin"
469,45.25549940000001,19.861985,Le Klok Bistro,ChIJB_Vk-TYPW0cR70yQUTiezm8,,5,restaurant,108,"Prote Mihaldžića 6, Petrovaradin"
470,45.2547547,19.8622888,Istra Nova,ChIJ12xUBHoQW0cRtVNc_EsM7R0,,5,restaurant,1,"10a BEOGRADSKA, 21132, Petrovaradin, Juzno-backi county"
471,45.25155509999999,19.87251239999999,Đava Gril,ChIJq8wASUwbW0cRcsXCXzUPNHw,,4.7,restaurant,169,"Preradovićeva 8, Petrovaradin"
472,45.2507088,19.8747126,Majurski Bircuz,ChIJgeBQc5saW0cRs4yWf6_xtyA,,4,restaurant,1,"Preradovićeva 23, Petrovaradin"
473,45.2527278,19.8614986,Restoran Karlo Tvrdjava,ChIJoUsSIroRW0cRrkeaUbMiYjs,2,3.8,restaurant,223,"Petrovaradinska tvrdjava Petrovaradin, Novi Sad"
474,45.2520517,19.8622627,"Ресторан ""Karlo""",ChIJe0h4zHAQW0cRgG0Z7LpMi6w,2,3.5,restaurant,319,"Gornji plato bb, Petrovaradin"
475,45.2539918,19.85959009999999,Чарда Аква Дориа,ChIJuxAXtWgQW0cRjDRiT4BPI-w,,4.5,restaurant,4212,"Kamenički put bb, Petrovaradin"
476,45.2503849,19.8751532,Галерија coffee & food bar Petrovaradin,ChIJMaKMPtYbW0cRoBzYq0Z3aD8,2,4.8,restaurant,171,"Preradovićeva 27, Petrovaradin"
477,45.2518679,19.8616642,Podrum sa supom,ChIJIYnh5zURW0cRoow_Lcha4z4,,5,restaurant,3,Petrovaradin
478,45.2517702,19.8616734,Restoran Leopold I,ChIJI1ab85sRW0cRw1TFyQgsE3Y,,5,restaurant,1,Petrovaradin
479,45.2587752,19.8843421,Restoran i Ribolovačko društvo Šaran,ChIJswzdoocaW0cR0Y0E5Cyew8U,2,4.4,restaurant,1018,"Petrovaradinska ada BB, Petrovaradin"
480,45.2492651,19.8675419,Slavica i muž,ChIJ2ZyhMEAbW0cR94Lz1YZFdoM,,5,restaurant,2,"Ђуре Јакшића 7, Петроварадин"
481,45.2494249,19.8640987,Балкан Експрес 021,ChIJO0BL2qEaW0cR1ob0NyxLOX8,2,4.6,restaurant,1422,"1, Kamenički put 21132, Petrovaradin"
482,45.2601558,19.8552246,Кибиц корнер,ChIJcaHueWQQW0cRkwDky6hAB_g,2,4.5,restaurant,814,"Beogradski kej 33, Novi Sad"
483,45.24946569999999,19.8775335,Diližansa,ChIJTdxZXoYbW0cRKdI5Lv0JIRc,,3.9,restaurant,63,"Juraja Križanića 4, Petrovaradin"
484,45.2569265,19.8544088,Дом Војске Србије,ChIJ33Cmc2UQW0cRp2wHvb0WjPM,2,4.3,restaurant,872,"Beogradski kej 9, Novi Sad"
485,45.2480916,19.876414,Kod Duške,ChIJ2Vy3k5obW0cRJPx3a7C3ZF8,,4.4,restaurant,23,"Jože Vlahovića 30, Petrovaradin"
486,45.2594641,19.853346,Lutajuce Srce,ChIJJzi3PWQQW0cRXgOunoHMCxw,,5,restaurant,2,"1 EPISKOPA VISARIONA, 21000, Novi Sad, Juzno-backi county"
487,45.2225654,19.8508437,Kordun,ChIJ0YW3JlQFW0cR9MjdL9PF4Mk,2,4.4,restaurant,328,"10A MOŠE PIJADE, 21208, Sremska Kamenica, Južno-bački okrug"
488,45.2043984,19.8904715,Razbeerbriga,ChIJIZA9X98EW0cR_P2588XqjGE,,4.3,restaurant,66,"Karađorđeva 208, Bukovac"
489,45.22571519999999,19.8785809,BOB GRILL,ChIJnTUaxtobW0cRro0jKk0TeVI,,5,restaurant,6,"21 141, Petrovaradin"
490,45.2183486,19.8561422,Pekara Corso,ChIJjU3l4NgFW0cR33K01B_eHe0,,4.4,restaurant,36,"Стевана Голдмана 4, Сремска Каменица Србија Институт"
491,45.2255385,19.8568579,Restoran Orient Express,ChIJO8vH-scbW0cRJDC5oK4H5Y8,,4.7,restaurant,95,"Mišeluk 4, Sremska Kamenica"
492,45.22317169999999,19.8550556,Grill Merkur,ChIJJwpJjlMFW0cRJsORKy5Xslo,1,4.2,restaurant,314,Sremska Kamenica
493,45.23056039999999,19.862089,La Brasa,ChIJFRJrR0AbW0cRkcqvPArujD0,,4.7,restaurant,475,"Mišeluk 92, Novi Sad"
494,45.23058700000001,19.8620033,Mesara Gavrilović - La Brasa,ChIJX469nuAbW0cR_9b24Ovz_Ak,2,4.6,restaurant,285,"Mišeluk 92, Novi Sad"
495,45.22950360000001,19.8821353,Roštilj i kuvana jela Bucka,ChIJc6UI-ZMbW0cROuYK_xLix7k,,4.5,restaurant,21,"Račkog 118 Petrovaradin, Novi Sad"
496,45.2055459,19.8699997,Vila Monokl,ChIJn4kCkyEFW0cRY-6LJsnsVdw,,5,restaurant,3,"Alibegovac BB, Novi Sad"
497,45.22698,19.8515784,CAMPUS RESTORAN,ChIJmVBeNVUFW0cRhShlfDyPb3s,2,4.6,restaurant,519,"Vojvode Putnika 68B, Sremska Kamenica"
498,45.2321385,19.8560469,Кафана Тако је суђено,ChIJo_ybl6kaW0cRq6duTYYk09c,2,4.5,restaurant,825,"Ribnjak gornji put, Petrovaradin"
499,45.2211923,19.8471183,Veni Vici,ChIJv40BB8MFW0cRO_1xtlVs480,,3,restaurant,2,"Franje Kluza 2, Sremska Kamenica"
500,45.22109349999999,19.8449143,Pizzeria Sv Stefan,ChIJEf5DkPgPW0cRNl4Mw3xKHdg,2,4.7,restaurant,810,"Cara Lazara 10, Сремска Каменица"
501,45.22,19.8436111,Dinara NS,ChIJpcs1a_gPW0cRtnn7D_oPOVk,,4.3,restaurant,21,"37 LOLE RIBARA, 21208, Sremska Kamenica, Južno-bački okrug"
502,45.2233542,19.84369880000001,Pečenjara Pampas,ChIJdYWH0J0PW0cRJKnInaWk1wk,,,restaurant,,"44, Svetosаvskа 21208, Sremska Kamenica"
503,45.2233848,19.8429431,Picerija Palermo,ChIJrwZqKfkPW0cR0BlcovzijSI,,4.3,restaurant,148,"Trg Zmaj Jove 13, Sremska Kamenica"
504,45.2264731,19.8433802,Фрушкогорски салаш,ChIJJwe5YsUPW0cR-FZ4Y-nrd8c,2,4.2,restaurant,392,Sremska Kamenica
505,45.23805639999999,19.8839955,Dionis,ChIJ-4C0_BobW0cRBeulVyg7BDk,2,4.4,restaurant,165,"Račkog 38, Petrovaradin"
506,45.24181089999999,19.8777761,MI Food,ChIJsYGPfb0aW0cRjU55v2Hlez4,,,restaurant,,"Tomislava Matasića 13, Petrovaradin"
507,45.223453,19.8426983,Palermo Roštilj,ChIJhZSpeWYPW0cRXag7jH1eYJY,,,restaurant,,"Trg Zmaj Jove, Sremska Kamenica"
508,45.1842073,19.826895,Планинарски дом ПСД Железничар,ChIJJUdG3YUFW0cRoDMous_xBKY,1,4.6,restaurant,96,"Fruškogorski put 366, Sremska Kamenica"
509,45.1886978,19.8066711,Podrum Miljević,ChIJva7SbHAPW0cRZpAm-wH8E80,,4.8,restaurant,140,"41, Sime Šolaje 41, Ledinci"
510,45.20084689999999,19.8160537,Vizija Extra,ChIJMThZJoAPW0cRqSfNXN15OuQ,,,restaurant,,Jasmina
511,45.1978319,19.8347984,Trkulja Petar,ChIJSYINvEgFW0cRGTuTuQJZaBo,,4.7,restaurant,30,"Paragovski vidikovac 36, Sremska Kamenica"
512,45.1966793,19.8412335,Sikman,ChIJQ8BoZXoFW0cR-3IyV49OYXA,,4.3,restaurant,3,"Slavujeva Ulica, Sremska Kamenica"
513,45.1995045,19.8424448,Fruškogorska terasa,ChIJQ7dFNWUFW0cRBZX2d0ZvZpw,2,4.4,restaurant,436,"21, Sremska Kamenica"
514,45.21140839999999,19.80901979999999,Restoran kompleks Vidikovac,ChIJUW_3Vr8PW0cRKFpBMP1Kp1o,2,4.5,restaurant,3038,"Samarski put bb, Ledinci"
515,45.1899843,19.8064818,Nasa farma kozica,ChIJ7zXYuGQPW0cRldpcgfSkz8w,,5,restaurant,22,"Vuka Karadžića 55 21207, Ledinci"
516,45.206514,19.844365,Prenoćište - restoran Sunce Novi Sad,ChIJx2tCHmcFW0cRT_x08IXJx0Y,,3.8,restaurant,97,"Dr Ketrin Mekfeil 1a (Iriški put bb), Novi Sad"
517,45.2066895,19.8446298,Motel Restoran Sunce,ChIJxT9PGWcFW0cRYxTXWpxu1j4,1,4.2,restaurant,1143,"Dr Ketrin Mekfeil 1а, Sremska Kamenica"
518,45.1842501,19.8275184,"Planinarski dom ""Crveni Čot""",ChIJrydxEJMFW0cRtNbQP8x6At0,,4.5,restaurant,53,"Fruškogorski put 366, Sremska Kamenica"
519,45.21711500000001,19.810066,Voćna vinarija Vojnović,ChIJFSay5MAPW0cR58borMdbCYA,,4.5,restaurant,19,"Dunavska, Novi Sad"
520,45.2017761,19.8502878,Dzoni,ChIJl42nNhsFW0cRbZlBwB5kcFY,,,restaurant,,Sremska Kamenica
521,45.1820404,19.8366584,Планинарски дом „Орлово гнездо”,ChIJJeZsmJoFW0cRObTVz3zyjPg,1,4.6,restaurant,292,"Majdanska, Sremska Kamenica"
522,45.22850140000001,19.7748572,Bata Pežo - Restoran,ChIJuxV8eDsOW0cRJ2_RmzK8wmU,2,4.5,restaurant,1433,"Kamenjar 5, Novi Sad"
523,45.2106387,19.7899558,Перпер,ChIJ_aFWiocPW0cRuPRyVEUFkFc,2,4.8,restaurant,153,"Rit 4, Лединци"
524,45.2347131,19.7669936,Sala za svadbe Restoran Poljubac,ChIJQ5tJqxkOW0cR7Lx8g1nxzeQ,,4,restaurant,77,"Nova 1, Veternik, Novi Sad"
525,45.235023,19.7673306,Lipov Gaj Svečana sala,ChIJWZy6M1sPW0cRnCwQVPHtpyw,,4.4,restaurant,269,"Nova 1 bb, Novi Sad"
526,45.23329159999999,19.792345,Бајина колиба,ChIJ14np8ysOW0cRgtQ4WliEWI4,2,4.6,restaurant,216,"Slavujeva, Novi Sad"
527,45.2254607,19.8004245,Riblji restoran Novi Sad Čarda Mačak,ChIJQ_RdR9wPW0cRAuLgdJnz6Hs,2,3.8,restaurant,615,"Kamenjar 387, Novi Sad"
528,45.23226349999999,19.7963347,Cafe pizzeria SOKO,ChIJwyxX2EgPW0cRRgYuKVqCgsA,2,4.9,restaurant,109,"Sokolska 11, Novi Sad"
529,45.2297848,19.7992062,Konoba kod Maline,ChIJR0BTFXMRW0cRgcGImvodEPs,,3,restaurant,21,"Podunavska 6, Novi Sad"
530,45.2422831,19.7788772,Moguntia Balkan,ChIJqbvSrd8RW0cRvcl6wsNS2ZI,,,restaurant,,"Branka Ilića 12 21000, Novi Sad"
531,45.2411173,19.7739748,"Picerija ""La Porta""",ChIJwfTunesRW0cRV8dIXES7Whg,1,4.5,restaurant,66,"Nova 78 1, Novi Sad"
532,45.2386616,19.7920471,Teuta NS,ChIJH2IdOtYRW0cRQtkwtbfknO0,,1,restaurant,1,"30 ZICKA, 21000, Novi Sad, Juzno-backi county"
533,45.25253079999999,19.7895625,Два Кнеза 021,ChIJ0W8j_cMRW0cRcwdZ16p96AY,,3.9,restaurant,323,"Bulevar kneza Miloša 33, Novi Sad"
534,45.25047680000001,19.800724,La Mama,ChIJd-vDzc4RW0cRQ7kjZSwL5XY,2,4.3,restaurant,112,"Partizanskih baza 29, Novi Sad"
535,45.2422831,19.7788772,Moguntia Balkan,ChIJqbvSrd8RW0cRvcl6wsNS2ZI,,,restaurant,,"Branka Ilića 12 21000, Novi Sad"
536,45.2562242,19.7841343,Na kraj sela,ChIJpcaKX-oRW0cR-XwxAHkUe_Y,2,4.5,restaurant,351,Novi Sad
537,45.2516796,19.7724483,Picerija PIZZICATO Novi Sad,ChIJ5XczzfsRW0cRd9txajqsuzM,,4.9,restaurant,10,"Dragoslava Srejovića 56, Veternik"
538,45.2545152,19.7629274,Korner,ChIJPxri2kcRW0cR7bcbYeqxuxE,,,restaurant,,"Kralja Petra I 22, Veternik"
539,45.2544593,19.7628517,Pizza BOSSI,ChIJHR8xO_cRW0cRYViW8DLZ4Lo,,4.3,restaurant,200,"Kralja Petra I, Veternik"
540,45.25442169999999,19.7624651,Mali Šef,ChIJWzG_yyERW0cRCdE3LpT9lgA,,4.6,restaurant,17,"Kralja Petra I 22b, Veternik"
541,45.25442169999999,19.7624651,DOMAĆE PITE URANAK,ChIJjZuoOlERW0cRfBCYJq0OFdI,,4.6,restaurant,26,"Kralja Petra I 22b, Veternik"
542,45.2505056,19.7662195,Novi Sad baran restauracja,ChIJIwn-DrkRW0cRwn8RzjwIl54,,,restaurant,,"Stevana Peci Popovića 25, Veternik"
543,45.25047499999999,19.7658198,Restoran Kod Duće,ChIJmZtOtvwRW0cR1vIVscXPR2w,2,4.7,restaurant,1807,"Tri bagrema 20, Veternik"
544,45.2480872,19.768385,Pecenjara Radic,ChIJR08wk-QRW0cRB9-GL4jgGUE,,4.5,restaurant,2,"Vladimira Matijevića 10, Veternik"
545,45.2511742,19.7616197,"Pekara ""Maffin 021""",ChIJW1omm_oRW0cRS8nS7CZgDV8,,5,restaurant,2,"Vojvode Mišića 28, Veternik"
546,45.2525939,19.7897745,Pica Pica,ChIJsTZgGcURW0cRiKua3j0n9kY,2,4.2,restaurant,149,"35, Bulevar kneza Miloša 21000, Novi Sad"
547,45.2523409,19.7897069,Pilece Krilce Orly,ChIJv6LG7pkRW0cR6uUYy-eWZhw,,5,restaurant,15,"Mileve Marić 2, Novi Sad"
548,45.2530283,19.7594923,"Zum grüne Baum Deutschland,Bad Homburg",ChIJwwUWGkIRW0cRuLthsEcQz1s,,,restaurant,,"Radnička, 07Veternik"
549,45.25254169999999,19.759866,Roma pizza,ChIJ8f8NUHQRW0cR6ZXj2e-TZaA,,4,restaurant,1,"Kralja Petra I 11/1, Kaluđerica"
550,45.2471118,19.7678924,KALIN ROŠTILJNICA,ChIJ0zvqmvgRW0cRNYmLzxxQ2nU,2,4.5,restaurant,121,"Novosadski put 31, Veternik"
551,45.24681229999999,19.76899359999999,Restoran Travica,ChIJ86hDf-QRW0cR7KgWuFxJwD4,2,4.4,restaurant,134,"Novosadski put 41, Veternik"
552,45.25235559999999,19.7909471,El Chileno Pizzeria,ChIJwfqqoeERW0cR_bogFva5kC8,,4.5,restaurant,28,"Seljačkih buna 95, Novi Sad"
553,45.2473068,19.7665725,RESTORAN PAMPAS,ChIJ8cDxW-QRW0cRCm_Hj1syg3A,,3.3,restaurant,8,"Novosadski put 19, Veternik"
554,45.25109929999999,19.78989649999999,DVA Slatkisa,ChIJsTZgGcURW0cRk-sTXVDUw2I,,4.4,restaurant,26,"Bulevar kneza Miloša 23, Novi Sad"
555,45.2472339,19.7663223,Ognjište Veternik - Roštilj iz Leskovac,ChIJjaXdOs8RW0cR-ku8b42VCD0,2,3.9,restaurant,91,"Novosadski put 19, Veternik"
556,45.2473384,19.7653234,Tip Top BR. 1,ChIJB40HquQRW0cRTN5J29PL_zA,,3,restaurant,1,"85A NOVOSADSKI PUT, 21203, Veternik, Južno-bački okrug"
557,45.271672,19.7822868,Roštilj Zlatni Ražanj,ChIJ72iAW9ERW0cR9h_PB25MijY,,4.9,restaurant,11,"Mare Branković, Novi Sad"
558,45.250768,19.7904097,NS PAPRIKA,ChIJA0_rZcQRW0cRZdXJ0oOoCps,1,4.1,restaurant,143,"Bistrica, Novi Sad"
559,45.2507838,19.7905229,Palačinke Trgić 021,ChIJrXhxMXoRW0cRdlYsjRX_MBo,,4.4,restaurant,7,"Bulevar kneza Miloša 21, Novi Sad"
560,45.245443,19.77172939999999,Naš restoran & concept bar,ChIJgWZNcFYRW0cRneh7d9LE-vk,2,4.6,restaurant,275,"Novosadski put 106, Veternik"
561,45.2492524,19.7890109,Han,ChIJ7_5VvcQRW0cR3kDhL-LfY4A,,3.4,restaurant,7,"2 MOMČILA TAPAVICE, 21000, Novi Sad, Južno-bački okrug"
562,45.2515242,19.7580173,Postavi sto - hrana za poneti,ChIJ45clunsRW0cRwov5o0tsrbg,,5,restaurant,3,"Vojvode Bojovića 2, Veternik"
563,45.2447822,19.7764146,MERAK etno roštiljnica,ChIJjZEajgERW0cRVxITAO4jVvI,,4.8,restaurant,15,"Novosadski put 85, Novi Sad"
564,45.24549160000001,19.7684343,Caffe Pizzeria Bolzano,ChIJx-yRouMRW0cRmczxvCXEhXQ,2,4.5,restaurant,327,"Dunavska 1c, Veternik"
565,45.2446497,19.7764095,Etno rostiljnica Merak- Brza dostava,ChIJiTyKfikRW0cRCLnG7x89yo0,1,4.4,restaurant,173,"Novosadski put 85, Veternik"
566,45.25024260000001,19.7583922,Rio grill - caffe,ChIJsTDRvj8RW0cRrKI3Yax6pK0,,5,restaurant,1,"Milana Tepića 1a, Veternik"
567,45.2541231,19.754709,Laki,ChIJTwrCtgISW0cRpcp8r4zPMr8,,4.7,restaurant,15,"Kralja Aleksandra 40, Veternik"
568,45.2516753,19.7558163,Boom Pizza,ChIJjUY6NmEQW0cRE0LaCvXlDgo,1,4.1,restaurant,88,"Kralja Aleksandra 22, Veternik"
569,45.2545583,19.7963333,Novo 10,ChIJd-pYQuMRW0cRbIKM6nvxPyM,2,4.5,restaurant,390,"Seljačkih buna 10, Novi Sad"
570,45.2501954,19.7558582,Обилић,ChIJmcn9wvgRW0cRGrm7Nc0n4CI,1,4.2,restaurant,40,"Kralja Aleksandra 1, Veternik"
571,45.2556249,19.7525793,Prirodna hrana,ChIJR-n3U1wQW0cRSQVWdofY--M,,,restaurant,,"Vuka Karadžića 50, Veternik"
572,45.2751136,19.779638,Vizantija Promet,ChIJNT5w6YMRW0cRZHNu5hq3Yk0,,5,restaurant,1,"41/a GORNJE SAJLOVO, 21000, Novi Sad, Juzno-backi county"
573,45.2525664,19.7969418,Ало,ChIJRTLuGMYRW0cRrZ3Ktrv42v4,2,4.3,restaurant,605,"Bate Brkića 24, Novi Sad"
574,45.243292,19.7841695,Foodić,ChIJQb0xA5URW0cRbgy_OAQUHZY,,4.8,restaurant,15,"Novosadski put 166, Novi Sad"
575,45.2744464,19.7856326,Sala za proslave - restoran Kameleon,ChIJ488o7eARW0cRFprtzK2AS4M,,,restaurant,,"Donje Sajlovo 96, Novi Sad"
576,45.2493924,19.7547307,Restoran Javor NS,ChIJaSnkMv8RW0cR7YmTWycsKTY,2,4.5,restaurant,709,"4, Ive Lole Ribara 1a, Veternik"
577,45.2492281,19.7954954,Elite Bar and Restaurant,ChIJwcCwoNARW0cRlAkTibqhMag,,3.3,restaurant,7,"Bulevar Jovana Dučića 35, Novi Sad"
578,45.2763593,19.7803692,Prica,ChIJ1cspzYMRW0cRo1KzxPa8jOc,,4.5,restaurant,4,"1/a Sajlovo XXI, 21000, Novi Sad, Južno-bački okrug"
579,45.2411173,19.7739748,"Picerija ""La Porta""",ChIJwfTunesRW0cRV8dIXES7Whg,1,4.5,restaurant,66,"Nova 78 1, Novi Sad"
580,45.2507606,19.7978364,TAVOLO,ChIJl3s6K_wRW0cRLw8zZxqZ0X8,,5,restaurant,1,"Bulevar Jovana Dučića 27, Novi Sad"
581,45.2505683,19.8000147,"Tegla S DOO, ogranak Kiflica",ChIJqQaQLckRW0cRwgtGEYj6Xp0,,5,restaurant,2,"Partizanskih baza 14, Novi Sad"
582,45.2505683,19.8000147,Palačinka Bar,ChIJwdX6MScRW0cR5wsSFQD2Vn8,,5,restaurant,1,"Partizanskih baza 14, Novi Sad"
583,45.2505803,19.8000247,Mirina Carolija,ChIJCxMGg-4RW0cRe9CQrE9PqYs,,4,restaurant,4,"Partizanskih baza 14, Novi Sad"
584,45.25056910000001,19.8000212,Mupuha yaporuja,ChIJS0vWR68RW0cRp4oa-gbPJfk,,,restaurant,,"21137, Partizanskih baza, Novi Sad"
585,45.242523,19.790481,"Ресторан ""Жал за младост""",ChIJNXrpmyUQW0cRjQTQvGx93tQ,2,4.2,restaurant,458,"189, Bulevar Patrijarha Pavla, Novi Sad"
586,45.2431602,19.7918301,Djeram,ChIJTQ9KsNARW0cR2GP55SV04ds,2,4.4,restaurant,258,"99 Futoški put, 21000, Novi Sad, Južno-bački okrug"
587,45.2498691,19.8001338,Sunrise,ChIJh4Ekw84RW0cRrj1_bJsVITY,,3,restaurant,1,"12 Braće Dronjak, 21000, Novi Sad, Južno-bački okrug"
588,45.2434175,19.7930001,Месара-Ресторан Ђурђевић,ChIJebdiJDMQW0cRBnKz5wxcniA,2,4.3,restaurant,659,"Futoški put 95, Novi Sad"
589,45.24885990000001,19.8004874,Picerija Mačak,ChIJ6aOOa-8RW0cRpx9T8fqIziA,,4.4,restaurant,83,"Braće Dronjak 3, Novi Sad"
590,45.2571792,19.8044128,Gambriano,ChIJxUcmB7YRW0cRyW0TbE0YrsM,2,4.6,restaurant,744,"29 STOJANA NOVAKOVICA, 21000, Novi Sad, Juzno-backi county, Novi Sad"
591,45.2511607,19.8023669,Pekara no 1,ChIJ_XvvRckRW0cRDUy0pRwCEBM,,4.5,restaurant,6,"Partizanskih baza 19, Novi Sad"
592,45.2551543,19.8043941,Orion-Plus,ChIJJ_uH48kRW0cRNrafYKtHe7s,,4.6,restaurant,28,"9 TODORA TOZE JOVANOVIĆA, 21000, Novi Sad, Južno-bački okrug"
593,45.25903150000001,19.8243183,Bubi Grill,ChIJK4GtZE4QW0cRN2CXRy-m53Q,1,4.1,restaurant,457,"Bulevar kralja Petra I 95, Novi Sad"
594,45.2607103,19.8333861,Бар „Скеч”,ChIJaUeeHVAQW0cRjfMU6paNjYI,2,4.5,restaurant,1041,"Bulevar kralja Petra I 15, Novi Sad"
595,45.259798,19.82165699999999,SKOČKO,ChIJ17dgsE0QW0cRMRUiqnaMnuc,2,4.4,restaurant,1030,"9, Rumenačka 21000, Novi Sad"
596,45.25741319999999,19.81739,Caribic Pizza,ChIJ52gfYksQW0cRJoKdYiMxOY0,2,4,restaurant,824,"Hadži Ruvimova 21, Novi Sad"
597,45.25870889999999,19.816904,My Way caffe restoran,ChIJtZ0uu0wQW0cRmC4BPntkw-4,,4.8,restaurant,62,"Ilije Birčanina 21, Novi Sad"
598,45.26240629999999,19.8185886,Кућа кобасице,ChIJJaXVVK0RW0cRjH4tT3z-lUw,,4.4,restaurant,827,"Rumenačka 33, Novi Sad"
599,45.257254,19.8166958,Vivaldi-krstic Poslasticarnica,ChIJV6DrXksQW0cRONmpDwXLfP0,,4.9,restaurant,16,"Hadži Ruvimova 31, Novi Sad"
600,45.2576435,19.8333907,De Gusto,ChIJ41PD_EQQW0cR2gRXK9lEfUE,2,4.4,restaurant,1446,"Bulevar oslobođenja 48, Novi Sad"
601,45.2575437,19.8154116,Nacionalna Kuca Pet +,ChIJfV9aarMRW0cRrYnlzcQ4RlE,2,4.6,restaurant,119,"Dr Svetislava Kasapinovića 15, Novi Sad"
602,45.2576602,19.8153493,"Национална кућа""Сач""",ChIJobpIq7QRW0cRO2A2Jv9-tgs,,4.7,restaurant,43,"Dr Svetislava Kasapinovića, Novi Sad"
603,45.257994,19.815065,Milanello,ChIJMb1OqLMRW0cRc6d8W7XVtk4,2,4.5,restaurant,689,"Dr Svetislava Kasapinovića 17, Novi Sad"
604,45.2618637,19.8311481,Minuta,ChIJTzDy81AQW0cR3FiEusNwUhk,,4,restaurant,433,"Bulevar oslobođenja 12 - 16, Novi Sad"
605,45.2587802,19.8131968,čombilend grand,ChIJW9xTebMRW0cRoiga_n_sGbc,2,4.4,restaurant,378,"Koste Racina 16, Novi Sad"
606,45.25560229999999,19.8310991,Nacho Sombrero Bar,ChIJbevTMEAQW0cRZTZMT9G88XE,,4.6,restaurant,129,"Branimira Ćosića 9, Novi Sad"
607,45.25467689999999,19.8312481,PALAČINKARNICA BAŠ UKUSNO,ChIJoeMdr0YQW0cRA4LUGxw-iTE,,4.7,restaurant,23,"Novosadskog sajma 27 lok.1, Novi Sad"
608,45.2599659,19.83291909999999,Restaurant & Pizzeria Savoca,ChIJ9aM2dFAQW0cRkIJV3aBCxFU,2,4.4,restaurant,2389,"Bulevar oslobođenja 41, Novi Sad"
609,45.2611076,19.8329251,Чика Перо / Čika Pero,ChIJ-X_8mVoQW0cR9amE8GOoGsk,2,4.5,restaurant,771,"Bulevar kralja Petra I 22, Novi Sad"
610,45.258084,19.811843,Palačinkarnica Nirvana | Dostava hrane,ChIJEYtffLQRW0cRn82OXFBgrJA,1,4.6,restaurant,263,"Koste Racina 27, Novi Sad"
611,45.25707959999999,19.8336856,Flying Dutchman,ChIJ2ZrH90QQW0cRMuOTTStwv4U,2,4.6,restaurant,2453,"Bulevar oslobođenja 52, Bulevar oslobođenja 54, Novi Sad"
612,45.2568738,19.8118038,Juliet,ChIJkxPU8LQRW0cRUMh7_75FCWQ,2,4.6,restaurant,1684,"Veselina Masleše 32, Novi Sad"
613,45.2650125,19.8315546,McDonald’s Park,ChIJW1TWK1cQW0cREg-6FGy3lYQ,2,4.2,restaurant,3962,"Bulevar Jaše Tomića бб, Novi Sad"
614,45.25912719999999,19.8356908,Pizzeria Ciao,ChIJqyUmh2gQW0cRPcAqDdhBjkI,2,4.4,restaurant,5437,"Braće Jovandić 1, Novi Sad"
615,45.2527274,19.8320578,Gojko's pizza,ChIJWV0Cz8sRW0cRMH74x7A4oLg,1,4.4,restaurant,253,"Ćirpanova 36, Novi Sad"
616,45.24914510000001,19.8216515,Ognjište kod Urgentnog - Roštilj iz Leskovac,ChIJ-dU9CzcQW0cRSuyeDjmw-h8,1,4.4,restaurant,944,"Futoška 85, Novi Sad"
617,45.2605206,19.8179653,Srpski Akademski Centar,ChIJ___vMU0QW0cRytjQEZ-gnSU,,,restaurant,,"Stevana Mokranjca 18, Novi Sad"
618,45.2592419,19.8182695,DOMINO,ChIJKfxX2UwQW0cRHdI4Te01JjQ,1,4.5,restaurant,451,"7, Stevana Mokranjca 21000, Novi Sad"
619,45.2567651,19.8309915,Kineski Zid,ChIJd8808U8QW0cRRpEnkV_aDug,2,4.5,restaurant,438,"Branimira Ćosića 25, Novi Sad"
620,45.2592068,19.822163,Chicken Chill,ChIJaaTkm1URW0cRvmDRfq7QBWc,,4.7,restaurant,43,"Rumenačka 1, Novi Sad"
621,45.259519,19.8219465,SAMI GRILL,ChIJNZaephURW0cR-BwrWsR0bJg,,5,restaurant,10,"Rumenačka 5, Novi Sad"
622,45.2596072,19.8218234,Palačinkarnica Miki Maus,ChIJFc9r65ARW0cRW1_CduxIXsk,2,4.6,restaurant,447,"Rumenačka 7, Novi Sad"
623,45.2590709,19.8208004,Sarajevski ćevap kod Dakca SAJAM,ChIJJTeYWEwQW0cRwwk2pfv1xc0,,4.6,restaurant,1069,"Braće Popović 4, Novi Sad"
624,45.2589389,19.8205061,Pizza skoro metar,ChIJfcIZb7QRW0cRq8N6QYKJQP4,1,4.3,restaurant,352,"Braće Popović 6, Novi Sad"
625,45.25889959999999,19.8203983,Репете,ChIJDRbuUEwQW0cRn8HMdUC0D9k,1,4.6,restaurant,498,"Braće Popović 8а, Novi Sad"
626,45.2590985,19.8250765,Pivoteka 77,ChIJV9emZ04QW0cRtjwwWlmcFeA,2,4.7,restaurant,707,"Bulevar kralja Petra I 89, Novi Sad"
627,45.25884689999999,19.8201315,Index Mirjana,ChIJ89koQD8QW0cRfPsyFLmKsDQ,,4.6,restaurant,1087,"8 BRAĆE POPOVIĆ, 21000, Novi Sad, Južno-bački okrug"
628,45.2588821,19.8200816,Index Vanessa,ChIJeboVE2kQW0cRFJf_cohCgAc,,4.5,restaurant,559,"Braće Popović 8а, Novi Sad"
629,45.26090620000001,19.8242226,Restoran Dedina Tajna,ChIJ8zrHdaoRW0cRzYeQ-1m_yEk,2,4.1,restaurant,163,"Pariske komune 22, Novi Sad"
630,45.2570705,19.8239329,G-Pub Gregors Pub,ChIJIQ5ezk4QW0cRew5bNDmrEzo,1,4.6,restaurant,994,"Hajduk Veljkova 11, Novi Sad"
631,45.258708,19.8195403,Šiš Ćevap Detelinara,ChIJuSXSABwRW0cRCZYuf6A3MVk,,4.6,restaurant,337,"Braće Popović 12, Novi Sad"
632,45.2571111,19.8251402,UR BAJKA,ChIJJ3yAjkURW0cRJN4kF1yJOEo,,5,restaurant,1,"Mičurinova 58, Novi Sad"
633,45.2568222,19.82485,Papričica Sajam,ChIJGyDb2E4QW0cRpCtNG5B8wMA,1,4.6,restaurant,1775,"Mičurinova 58X, Novi Sad"
634,45.2570053,19.8253441,Kafe picerija Bajka 021,ChIJSfHV2E4QW0cRqfCmK3NsRDY,2,4.5,restaurant,263,"Mičurinova, Novi Sad"
635,45.2593056,19.8270234,UNA,ChIJl8ajFdcRW0cRyEZKLAIid-s,,4.6,restaurant,19,"Bulevar kralja Petra I 61, Novi Sad"
636,45.25959570000001,19.8271224,Pod Orahom,ChIJk3ovx40RW0cRatlD6XlDqh0,2,4.5,restaurant,624,"Bulevar kralja Petra I 40, Novi Sad"
637,45.2613993,19.819683,Dimi's Diner,ChIJEVvJEooRW0cR_fPeA0P2cq0,,5,restaurant,20,"Rumenačka 25, Novi Sad"
638,45.2613993,19.819683,Fry Factory,ChIJGeFzJGwRW0cR9_kdXZQPBuY,,4.7,restaurant,56,"Rumenačka 25, Novi Sad"
639,45.2613993,19.819683,DON PLJESKALONE,ChIJUydrfd4RW0cRj4M4ppe6kx8,,5,restaurant,6,"Rumenačka 25, Novi Sad"
640,45.260227,19.8176629,Mimi Ketering,ChIJqaG9MDERW0cRv1jfcWD_yP0,,,restaurant,,"Stevana Mokranjca 12, Novi Sad"
641,45.25735600000001,19.8178676,Lunch Time,ChIJVTTpPWEQW0cRsNp-Ipq-Dx4,,4.6,restaurant,44,"11 ILIJA BIRČANINA, 21000, Novi Sad, Južno-bački okrug"
642,45.2559147,19.8192022,Dva Štapića Paviljon,ChIJCedOjX0RW0cRg1tlx5-tDXo,2,4.4,restaurant,663,"Branka Bajića 9n, Novi Sad"
643,45.259478,19.8284978,Strawa Ćoše Jagodica Španović,ChIJ014qoFYRW0cRVLK2SWp2wMw,,4.7,restaurant,62,"Bulevar kralja Petra I 39, Novi Sad"
644,45.2574409,19.8172569,Palačinkarnica Fenix,ChIJTUBlQx4RW0cRbP0IC5Ys3Jc,,3.5,restaurant,102,"Hadži Ruvimova 23, Novi Sad"
645,45.25579509999999,19.8190107,Stribor Beer & More,ChIJcZyaN9QRW0cRUJFoelMkNIo,,4.8,restaurant,1051,"Branka Bajića 9n, Novi Sad"
646,45.2582197,19.81680859999999,Caffe pizzeria Victory,ChIJX52UVooRW0cRZR_xMjTTsOk,,3.4,restaurant,130,"Ilije Birčanina 21, Novi Sad"
647,45.2584911,19.8165374,Cecina kuhinja,ChIJo9xJ3HURW0cR17lQQMs4Eq0,,5,restaurant,3,"Ilije Birčanina 25, Novi Sad"
648,45.261715,19.8176153,Žaromanija NS,ChIJofQwsLIRW0cR7UGjAsBlfCA,2,4.8,restaurant,495,"Pasterova 26, Novi Sad"
649,45.2564631,19.8175467,Nas Salas,ChIJJ_OYFBYRW0cR-Qx-CUj44aQ,,,restaurant,,"Kopernikova 11, Novi Sad"
650,45.2621413,19.8179716,Index Šestica,ChIJ9_mUeOERW0cRJIyQCAcJL1o,2,3.9,restaurant,288,"Janka Veselinovića 1, Novi Sad"
651,45.258441,19.816307,Supe i Čorbe,ChIJDTwZtEwQW0cR8dIJ5taz9mw,,5,restaurant,1,"Ilije Birčanina 27, Novi Sad"
652,45.2587665,19.8161959,Pekara - Kuća Dobrog Peciva,ChIJB7Y-3vERW0cRNxlyJwsZLLg,,5,restaurant,9,"Ilije Birčanina 31, Novi Sad"
653,45.2586006,19.8457403,Hotel and restaurant Fountain,ChIJocmNkmcQW0cRbWiL3n-lrxs,,4.6,restaurant,1945,"Nikole Pašića 27, Novi Sad"
654,45.25139859999999,19.8418709,Macchiato Kuća,ChIJCybxWKARW0cRZX0VgMmdUJo,2,4.6,restaurant,571,"Železnička 10, Novi Sad"
655,45.2493376,19.8395276,Ananda,ChIJucw0tmoQW0cRhxD0Z1nof5g,2,4.7,restaurant,744,"Petra Drapšina 51, Novi Sad"
656,45.2546834,19.8460869,Pizzeria Caribic,ChIJc2fm4WgQW0cRu6e-k1iDNPk,2,4,restaurant,1767,"prizemlje i prvi sprat, Modene, Novi Sad"
657,45.2515447,19.8472095,Palačinkarnica Pinokio NS,ChIJUUWJD2wQW0cR0dNimpyRCbI,,4.6,restaurant,230,"Stražilovska 1, Novi Sad"
658,45.2480583,19.83983419999999,Kutlača Bar,ChIJr2emJRUQW0cRfUpsXrLCQFE,,4.4,restaurant,238,"Maksima Gorkog br. 2, Novi Sad"
659,45.252726,19.838197,Бањалучки ћевап,ChIJ895NlEEQW0cR7wFoVLP5WUw,2,4.5,restaurant,1664,"Gajeva, Novi Sad"
660,45.2503051,19.8476138,Stevča Ekspres,ChIJCeYlQ2wQW0cRwQS4AKIZdvE,2,4.4,restaurant,835,"Maksima Gorkog 17a, Novi Sad"
661,45.2494513,19.8444729,Gazprom Petrol - Novi Sad 1,ChIJQWoaLGsQW0cRKi6bctoR5DM,,4.4,restaurant,1124,"Maksima Gorkog 1b, Novi Sad"
662,45.2482425,19.8492827,Celer Superfood,ChIJo8AqBW0QW0cRbxaIKqM5GZw,2,4.4,restaurant,845,"Stražilovska 37, Novi Sad"
663,45.2499698,19.8512764,Pascal,ChIJqQvKk20QW0cR6hhmL-7KlOE,2,4.7,restaurant,810,"Radnička 22, Novi Sad"
664,45.2538115,19.8464853,Index House 021,ChIJD1Sm3GgQW0cR9DGRl_LwD54,1,3.5,restaurant,754,"Bulevar Mihajla Pupina, Novi Sad"
665,45.2486136,19.8414788,Caribic Pizza,ChIJ__8_OmsQW0cRvaMwwkNuRIo,2,4,restaurant,798,"Trg Carice Milice 4, Novi Sad"
666,45.2484666,19.84125389999999,Vruca Kuca,ChIJdZbuLGsQW0cRsp1_hCK16j4,,4.3,restaurant,16,"Maksima Gorkog, Novi Sad"
667,45.25211900000001,19.8520965,Restoran Forum,ChIJt327bG4QW0cR80KYDG2Xaus,1,4.4,restaurant,297,"3 Vojvode Mišića 21000, Novi Sad"
668,45.2502108,19.83876069999999,Ćilim,ChIJ6XpdlmoQW0cR3CuyKZzjEJI,1,4.5,restaurant,193,"13 LAZE KOSTIĆA, 21000, Novi Sad, Južno-bački okrug"
669,45.2541982,19.8448373,Palacinkarnica Walt Disney,ChIJydOBqWkQW0cROaz4nF1TE-A,1,4.5,restaurant,379,"Kralja Aleksandra 1, Novi Sad"
670,45.25436490000001,19.84639,Petrus Caffe,ChIJjT8hGWkQW0cRXIisH08gUw0,2,4.7,restaurant,7268,"Modene, Novi Sad"
671,45.2513277,19.8361383,Harpun - Pečena riba na žaru,ChIJi6fdUEAQW0cRjb4mZbsdtRg,2,4.6,restaurant,313,"Futoška 3, Novi Sad"
672,45.25480779999999,19.8465654,TETAK indeks sendvic Novi Sad,ChIJo37qH2kQW0cRv6lVYqctPF8,,4.1,restaurant,323,"Modene 3, Novi Sad"
673,45.2530406,19.8390463,"Кафана ""Греда""",ChIJbZiL7UEQW0cRmDrh23B0vjc,1,4.4,restaurant,1216,"Jevrejska 26, Novi Sad"
674,45.2555109,19.8468118,Pivnica Gusan,ChIJWZMWKGYQW0cRJHt32SAPfxA,2,4.5,restaurant,3452,"Zmaj Jovina 4, Novi Sad"
675,45.2555693,19.8451281,Loft Downtown,ChIJ-TmuRWgQW0cRkIZKPkMm8no,2,4.7,restaurant,3614,"Njegoševa 2, Novi Sad"
676,45.2510786,19.8379284,Tortilla Casa,ChIJR369NEAQW0cRGm5VqF37M3w,2,4.3,restaurant,1780,"21000, Bulevar oslobođenja 91, Novi Sad"
677,45.2511379,19.83792829999999,Минута,ChIJkbxsM0AQW0cRwo_FEsYBftE,,3.6,restaurant,692,"Bulevar oslobođenja 89е, Novi Sad"
678,45.255626,19.8480915,Ленкина Башта,ChIJebe7uGgQW0cR0wvGbHsmoro,,,restaurant,,"Ilije Ognjanovića 8, Novi Sad"
679,45.2497637,19.8374811,Kao Nekad,ChIJ5wdUG0AQW0cRmVHt4qOipmw,,4.6,restaurant,116,"Danila Kiša 2-4, Novi Sad"
680,45.2557722,19.8465151,Kafe Restoran Maša,ChIJRUMSKGYQW0cR6TsNNN8fSBA,2,4.5,restaurant,2600,"Zmaj Jovina 4, Novi Sad"
681,45.2557092,19.849378,Salad Bar Čaplin,ChIJyemltGgQW0cRfV_VH4eSaIA,,,restaurant,,"Pasaž Ise Bajića I Dunavkse 6, Novi Sad"
682,45.2559319,19.844675,Gradska pivnica,ChIJJ7oRP2gQW0cR8dmWBSuIa-s,2,4.7,restaurant,2425,"Njegoševa 6, Novi Sad"
683,45.256055,19.844635,Toster Bar,ChIJCcBil2gQW0cR8dCGHd3nO14,2,4.7,restaurant,4076,"Njegoševa 10, Novi Sad"
684,45.25232099999999,19.837664,Rekalibracija,ChIJxV3ju0EQW0cRQxcWWqJQ4qE,1,4.7,restaurant,504,"Jevrejska 42, Novi Sad"
685,45.256353,19.8461205,Lazin Salaš,ChIJZWjSY2gQW0cRfxOXOpDL6vw,2,4.5,restaurant,2836,"Laze Telečkog 5, Novi Sad"
686,45.25235,19.837517,Balans Palacinke,ChIJEZ2Vu0EQW0cRJ7CCx6TrCLY,1,4.3,restaurant,1674,"Jevrejska 42, Novi Sad"
687,45.25620259999999,19.8442993,Pancetta,ChIJBz9iPmgQW0cRojETkkYyy5w,2,4.3,restaurant,942,"Njegoševa 12, Novi Sad"
688,45.2539862,19.854151,New Jamon,ChIJ78bV3G8QW0cR2BhM_u6saX0,2,4.6,restaurant,589,"6, Trg Neznanog junaka 21000, Novi Sad"
689,45.2562359,19.8442372,Barrique Gastropab,ChIJr6R-PmgQW0cRqUuHlcUKV1M,2,4.4,restaurant,1072,"Njegoševa 12, Novi Sad"
690,45.2564531,19.8470988,Corso Café & Restaurant,ChIJN2JOhWgQW0cRi1bYHqDl_K8,2,4.4,restaurant,3136,"Zmaj Jovina 17, Novi Sad"
691,45.256846,19.847564,Etno restoran Stara Pesma Novi Sad,ChIJIQxrKZENW0cRJfZE3BiNZmM,2,4.1,restaurant,216,"Zmaj Jovina 21, Novi Sad"
692,45.2569367,19.8461781,Pepper pizza bar,ChIJlV9jeWgQW0cRlIHsTK1Gxgc,2,4.4,restaurant,859,"Svetozara Miletića 17, Novi Sad"
693,45.2569187,19.8447314,Giros Land,ChIJ9RdiDWgQW0cRCqfLkU5Hb9Q,2,4.3,restaurant,1141,"23 LAZE TELEČKOG, 21000, Novi Sad, Južno-bački okrug, Novi Sad"
694,45.2430432,19.8535177,Indeksova Tribina,ChIJv2k3cAwQW0cR9szsRT73u-E,2,4.4,restaurant,822,"Jirečekova bb, Novi Sad"
695,45.2514225,19.8356406,Index Maja,ChIJTTVFQ0wQW0cRciZ1KGYhp04,,4.5,restaurant,2036,"Futoška 14, Novi Sad"
696,45.25736080000001,19.8489985,Kuća kobasice,ChIJcf-KPWYQW0cRrBNn-6pXVks,1,4.4,restaurant,1149,"Trg republike 6, Novi Sad"
697,45.2410922,19.8474187,Пекара Крости,ChIJz7VmFQ4QW0cRkkBrl9Bmhp8,2,4.3,restaurant,465,"prizemlje 22 21000, Fruškogorska, Novi Sad"
698,45.2485145,19.8338182,Extra Food,ChIJ89koQD8QW0cRrrKG3UoDOMw,,3.7,restaurant,34,"43 BRACE RIBNIKAR, 21000, Novi Sad, Juzno-backi county"
699,45.2484026,19.8337662,BelaVila,ChIJfXuzoT8QW0cRkLlZqKnVqYk,2,4.3,restaurant,133,"Braće Ribnikar 43, Novi Sad"
700,45.2422523,19.8365001,Caffe Pizzeria Big Blue,ChIJv_fL_hYQW0cR6Rb_JjaVHPc,2,4.6,restaurant,724,"Bulevar cara Lazara 47, Novi Sad"
701,45.2394622,19.8483798,Ni Hao,ChIJC98_Bw8QW0cRoP44npWpDnc,2,4.1,restaurant,609,"Fruškogorska 43, Novi Sad"
702,45.2461025,19.8328811,Nook,ChIJgxX7aD4QW0cRWcC11PV_eyg,2,4.6,restaurant,418,"Miše Dimitrijevića 9, Novi Sad"
703,45.2487792,19.8484876,Koliba,ChIJVVVBG20QW0cRYTGDt6Q5ye8,2,4.8,restaurant,250,"Stražilovska 14, Novi Sad"
704,45.25945890000001,19.8428877,BigPizza,ChIJNXn7OV0QW0cR8GeCrPq9PTI,,3.3,restaurant,336,"Jovana Subotića 18, Novi Sad"
705,45.2561198,19.846901,Svečana sala Kruna,ChIJzbQn82gQW0cRKyGDQersAng,,,restaurant,,"Zmaj Jovina, Novi Sad"
706,45.2479259,19.8354782,Salti,ChIJiaqrdT8QW0cRS5W4AuZ8LFQ,,,restaurant,,"Braće Ribnikar, Novi Sad"
707,45.2527274,19.8320578,Gojko's pizza,ChIJWV0Cz8sRW0cRMH74x7A4oLg,1,4.4,restaurant,253,"Ćirpanova 36, Novi Sad"
708,45.2511041,19.8379661,Caribic Pizza,ChIJ74-UL2sQW0cRJCStVZmjewI,1,3.9,restaurant,1373,"21000, Jevrejska 35, Novi Sad"
709,45.2473286,19.8465794,Minuta,ChIJ_3gRKxMQW0cRCElfsRLAqEA,1,3.3,restaurant,399,"Sutjeska 2, Novi Sad"
710,45.249063,19.843126,The Camelot Novi Sad,ChIJO4GJQWsQW0cRo_ZmEjGZfts,2,4.7,restaurant,4242,"Sremska 9, Novi Sad"
711,45.252998,19.8615536,Restaurant „Clock”,ChIJ9bv4y3AQW0cRJZpVHURxWks,2,3.5,restaurant,540,"Тврђава, Петроварадин 21131, Petrovaradin"
712,45.2531299,19.8615653,Terasa,ChIJ4chAynAQW0cRxmSPY_DaTHE,2,4.5,restaurant,3601,Petrovaradin
713,45.2306484,19.8334585,Tourist resort Ribarsko ostrvo,ChIJZ92iVBwQW0cRi68mFMVcymU,,4.5,restaurant,267,"Ribarsko ostrvo 4, Novi Sad"
714,45.2225654,19.8508437,Kordun,ChIJ0YW3JlQFW0cR9MjdL9PF4Mk,2,4.4,restaurant,328,"10A MOŠE PIJADE, 21208, Sremska Kamenica, Južno-bački okrug"
715,45.23270109999999,19.841281,Top River Restoran,ChIJi0spQQMQW0cRUZAxUI2gjMc,,5,restaurant,1,Novi Sad
716,45.2378192,19.8478478,Bezza Caffe & restoran,ChIJg2ALew8QW0cRHXzMEB-otIQ,2,4.5,restaurant,1898,"Sunčani kej, Novi Sad"
717,45.22999189999999,19.8350563,Piknik,ChIJdRIkguIPW0cR7Hfu77fEhwk,2,4.5,restaurant,4769,"Ribarsko ostrvo bb, Novi Sad"
718,45.22987089999999,19.8334551,Restoran Ribarac,ChIJDcmjqAQQW0cR50BT4Ub_5rk,2,4.5,restaurant,935,Novi Sad
719,45.2394622,19.8483798,Ni Hao,ChIJC98_Bw8QW0cRoP44npWpDnc,2,4.1,restaurant,609,"Fruškogorska 43, Novi Sad"
720,45.2296724,19.8341369,"Restoran ""Alaska Barka""",ChIJH_54feIPW0cRxESrIFW-m9g,2,4.5,restaurant,1953,Novi Sad
721,45.2264731,19.8433802,Фрушкогорски салаш,ChIJJwe5YsUPW0cR-FZ4Y-nrd8c,2,4.2,restaurant,392,Sremska Kamenica
722,45.2328136,19.8419708,Bistrot,ChIJlSLobSYRW0cRM2r6hF4t9ts,2,5,restaurant,213,Novi Sad
723,45.2327185,19.8418491,Carda Dunavac km,ChIJC8gFawMQW0cRoaBEM22a2J4,2,4.6,restaurant,751,"Ribarsko ostrvo, Novi Sad"
724,45.23254739999999,19.8414255,Ribarsko Ostrvo - ElektroVojvodina,ChIJuc1EQAMQW0cRsZd7tc3PSoU,,4.2,restaurant,381,"Ribarsko Ostrvo bb, Novi Sad"
725,45.22698,19.8515784,CAMPUS RESTORAN,ChIJmVBeNVUFW0cRhShlfDyPb3s,2,4.6,restaurant,519,"Vojvode Putnika 68B, Sremska Kamenica"
726,45.233611,19.842719,Чарда Кућерак на Рибарцу,ChIJt65lngQQW0cRvhjwcPQ9tt4,2,4.6,restaurant,3007,"Ribarsko ostrvo, Novi Sad"
727,45.2327459,19.8413515,"Ресторан ""Ко воли""",ChIJJYI4QQMQW0cR7UxbBi-Odfo,,3,restaurant,3,Novi Sad
728,45.2327514,19.8411621,Берта,ChIJ7XwGKd0RW0cR4BDdSVKIIZw,2,4.3,restaurant,137,"Ribarsko ostrvo 10, Novi Sad"
729,45.2335106,19.8417602,Рибља чарда „Нећко“,ChIJReceWgMQW0cRBSilNGmopXw,2,4.1,restaurant,587,Novi Sad
730,45.2313723,19.8393932,Splav Noina Arka,ChIJQUUQ5xoRW0cRAM6DGyYPoJU,,5,restaurant,17,"Ribarsko ostrvo BB, Novi Sad"
731,45.235462,19.8438691,Оркус Штранд,ChIJ6Rh9Hc8RW0cR80IRP58xxyc,2,4.6,restaurant,134,"Sunčani kej, Novi Sad"
732,45.2309744,19.8382908,Mon Ami Marine Club,ChIJ_a1PueERW0cRXUatg3IW5ms,,4.6,restaurant,282,"Ribarsko ostrvo bb, Novi Sad"
733,45.2360584,19.8478788,Beer Garden,ChIJIyF64lgRW0cRjkDPaB6FuNI,,5,restaurant,32,"plaža Štrand, Novosadska, Novi Sad"
734,45.2354745,19.8415252,Чарда Једро,ChIJrwadzHMQW0cRTyJ1s4zAEhw,2,4.5,restaurant,615,"Sunčani kej 2, Novi Sad"
735,45.2352918,19.841032,Чарда Лиман,ChIJAeZ7NxsQW0cRp6WI2zGa578,2,4.3,restaurant,286,"Sunčani kej bb, Novi Sad"
736,45.2233542,19.84369880000001,Pečenjara Pampas,ChIJdYWH0J0PW0cRJKnInaWk1wk,,,restaurant,,"44, Svetosаvskа 21208, Sremska Kamenica"
737,45.2233848,19.8429431,Picerija Palermo,ChIJrwZqKfkPW0cR0BlcovzijSI,,4.3,restaurant,148,"Trg Zmaj Jove 13, Sremska Kamenica"
738,45.2321385,19.8560469,Кафана Тако је суђено,ChIJo_ybl6kaW0cRq6duTYYk09c,2,4.5,restaurant,825,"Ribnjak gornji put, Petrovaradin"
739,45.2255385,19.8568579,Restoran Orient Express,ChIJO8vH-scbW0cRJDC5oK4H5Y8,,4.7,restaurant,95,"Mišeluk 4, Sremska Kamenica"
740,45.237896,19.8501652,"Loft River, Restaurant & Beach Bar",ChIJJXpU72kRW0cRYpuQmhx3YCo,2,4.3,restaurant,639,"Štrand (Sunčani Kej) leva strana, Novi Sad"
741,45.2382649,19.8480049,BC Pizza,ChIJeaa0_Q0QW0cRXVnP8O71vU0,,3,restaurant,1,"36 FRUŠKOGORSKA, 21000, Novi Sad, Južno-bački okrug"
742,45.2384482,19.8462224,Club Sonja,ChIJeaa0_Q0QW0cRMwcr8VPbakQ,2,4.5,restaurant,395,"Fruškogorska 36, Novi Sad"
743,45.2211923,19.8471183,Veni Vici,ChIJv40BB8MFW0cRO_1xtlVs480,,3,restaurant,2,"Franje Kluza 2, Sremska Kamenica"
744,45.22109349999999,19.8449143,Pizzeria Sv Stefan,ChIJEf5DkPgPW0cRNl4Mw3xKHdg,2,4.7,restaurant,810,"Cara Lazara 10, Сремска Каменица"
745,45.22317169999999,19.8550556,Grill Merkur,ChIJJwpJjlMFW0cRJsORKy5Xslo,1,4.2,restaurant,314,Sremska Kamenica
746,45.2384787,19.851119,CESLA CARDA restoran,ChIJLz-BLQ8QW0cRs4cWLzOTBaA,2,4.4,restaurant,481,"Sunčani kej 4, Novi Sad"
747,45.2392117,19.8473879,Оаза,ChIJdakYpQ8QW0cR3mzO1PJyOAw,1,4.3,restaurant,29,Novi Sad
748,45.2293222,19.8328967,Baron Castel,ChIJ76gCpOERW0cRDOeYFRRruEY,,4.8,restaurant,44,Novi Sad
749,45.23934529999999,19.8501668,Cubo Concept Bar & Restaurant,ChIJMaYzIQ8QW0cRAp1Rh4_Vuuk,2,4.6,restaurant,1232,"Strumička 16, Novi Sad"
750,45.22,19.8436111,Dinara NS,ChIJpcs1a_gPW0cRtnn7D_oPOVk,,4.3,restaurant,21,"37 LOLE RIBARA, 21208, Sremska Kamenica, Južno-bački okrug"
751,45.22302159999999,19.8346176,Kod Vožda,ChIJA5r0UJUPW0cRsNKr94iO6wA,1,4.7,restaurant,422,"Karađorđeva, Sremska Kamenica"
752,45.23058700000001,19.8620033,Mesara Gavrilović - La Brasa,ChIJX469nuAbW0cR_9b24Ovz_Ak,2,4.6,restaurant,285,"Mišeluk 92, Novi Sad"
753,45.23056039999999,19.862089,La Brasa,ChIJFRJrR0AbW0cRkcqvPArujD0,,4.7,restaurant,475,"Mišeluk 92, Novi Sad"
754,45.223453,19.8426983,Palermo Roštilj,ChIJhZSpeWYPW0cRXag7jH1eYJY,,,restaurant,,"Trg Zmaj Jove, Sremska Kamenica"
755,45.2228971,19.8338691,Fish Restaurant Sremac,ChIJmbsc2foPW0cRtjt7UiYjFHk,2,4.1,restaurant,524,"Karađorđeva 16, Sremska Kamenica"
756,45.22302159999999,19.8346176,Kod Vožda,ChIJA5r0UJUPW0cRsNKr94iO6wA,1,4.7,restaurant,422,"Karađorđeva, Sremska Kamenica"
757,45.21711500000001,19.810066,Voćna vinarija Vojnović,ChIJFSay5MAPW0cR58borMdbCYA,,4.5,restaurant,19,"Dunavska, Novi Sad"
758,45.2297848,19.7992062,Konoba kod Maline,ChIJR0BTFXMRW0cRgcGImvodEPs,,3,restaurant,21,"Podunavska 6, Novi Sad"
759,45.23226349999999,19.7963347,Cafe pizzeria SOKO,ChIJwyxX2EgPW0cRRgYuKVqCgsA,2,4.9,restaurant,109,"Sokolska 11, Novi Sad"
760,45.2254607,19.8004245,Riblji restoran Novi Sad Čarda Mačak,ChIJQ_RdR9wPW0cRAuLgdJnz6Hs,2,3.8,restaurant,615,"Kamenjar 387, Novi Sad"
761,45.2301744,19.80570120000001,PETLOV SALAŠ - Restoran i prenoćište,ChIJ-1QfmDUPW0cRQ9EgtSfKfxo,2,4.6,restaurant,158,"Podunavska 2, Novi Sad"
762,45.23329159999999,19.792345,Бајина колиба,ChIJ14np8ysOW0cRgtQ4WliEWI4,2,4.6,restaurant,216,"Slavujeva, Novi Sad"
763,45.23638629999999,19.7983663,Picerija Foka Adice,ChIJRRxz-2APW0cRVMZyEA2Y4dE,,5,restaurant,1,"Branka Ćopića 33, Novi Sad"
764,45.2363941,19.7982119,Picerija Foka,ChIJdcJP6iwQW0cRAWtrBgfiOfs,2,4.7,restaurant,204,"Branka Ćopića 33, Novi Sad"
765,45.2301312,19.8093209,Gorki-Gu,ChIJ2QcXUdcPW0cRE60gWbI00Fo,,5,restaurant,2,"22 HEROJA PINKIJA, 21000, Novi Sad, Juzno-backi county"
766,45.2301312,19.8093209,Grill-Restoran Sator,ChIJ2QcXUdcPW0cRpsSpycONP1Y,,4,restaurant,1,"24 HEROJA PINKIJA, 21000, Novi Sad, Južno-bački okrug"
767,45.2377236,19.799909,Pekara Baker,ChIJMSZ8r70RW0cRPj5KT2-No3o,,3.9,restaurant,13,"Branka Ćopića 9b, Novi Sad"
768,45.2377236,19.799909,Pink Panter Ćevabdžinica,ChIJ-wEEOdURW0cROuiErpZeTMY,1,4.5,restaurant,165,"Branka Ćopića 9b, Novi Sad"
769,45.2349919,19.810264,Gringo plus,ChIJvU8Hj1oPW0cRPS_V4ydL7Gk,,5,restaurant,5,"Feješ Klare 44c, Novi Sad"
770,45.2386616,19.7920471,Teuta NS,ChIJH2IdOtYRW0cRQtkwtbfknO0,,1,restaurant,1,"30 ZICKA, 21000, Novi Sad, Juzno-backi county"
771,45.25174749999999,19.8055215,Salatina,ChIJVTTpPWEQW0cRTraWyvpI5ow,,4.7,restaurant,63,"Bulevar Slobodana Jovanovića 10, Novi Sad"
772,45.25047680000001,19.800724,La Mama,ChIJd-vDzc4RW0cRQ7kjZSwL5XY,2,4.3,restaurant,112,"Partizanskih baza 29, Novi Sad"
773,45.25253079999999,19.7895625,Два Кнеза 021,ChIJ0W8j_cMRW0cRcwdZ16p96AY,,3.9,restaurant,323,"Bulevar kneza Miloša 33, Novi Sad"
774,45.24759299999999,19.8111323,Aviso Fish Market,ChIJ2__d08wRW0cRHk9r29tYku4,2,4.5,restaurant,252,"Futoški put 39, 21000, Novi Sad"
775,45.24736799999999,19.8111968,Žar Mance,ChIJ0_NdCTMQW0cRNHnR37NIq6Y,2,4.5,restaurant,992,"Subotička 1a, Novi Sad"
776,45.241029,19.809213,Priča Concept Bar,ChIJQxjWOywQW0cRiX_C0O3j7ek,2,4.5,restaurant,1474,"Bulevar patrijarha Pavla 16b, Novi Sad"
777,45.2481478,19.8146443,Нови Шампањац,ChIJs_z1-TMQW0cRcrWOkossMrM,2,4.5,restaurant,562,"Futoški put 9, Novi Sad"
778,45.2498691,19.8001338,Sunrise,ChIJh4Ekw84RW0cRrj1_bJsVITY,,3,restaurant,1,"12 Braće Dronjak, 21000, Novi Sad, Južno-bački okrug"
779,45.24885990000001,19.8004874,Picerija Mačak,ChIJ6aOOa-8RW0cRpx9T8fqIziA,,4.4,restaurant,83,"Braće Dronjak 3, Novi Sad"
780,45.2505683,19.8000147,"Tegla S DOO, ogranak Kiflica",ChIJqQaQLckRW0cRwgtGEYj6Xp0,,5,restaurant,2,"Partizanskih baza 14, Novi Sad"
781,45.2505683,19.8000147,Palačinka Bar,ChIJwdX6MScRW0cR5wsSFQD2Vn8,,5,restaurant,1,"Partizanskih baza 14, Novi Sad"
782,45.25056910000001,19.8000212,Mupuha yaporuja,ChIJS0vWR68RW0cRp4oa-gbPJfk,,,restaurant,,"21137, Partizanskih baza, Novi Sad"
783,45.2505803,19.8000247,Mirina Carolija,ChIJCxMGg-4RW0cRe9CQrE9PqYs,,4,restaurant,4,"Partizanskih baza 14, Novi Sad"
784,45.2507606,19.7978364,TAVOLO,ChIJl3s6K_wRW0cRLw8zZxqZ0X8,,5,restaurant,1,"Bulevar Jovana Dučića 27, Novi Sad"
785,45.2492281,19.7954954,Elite Bar and Restaurant,ChIJwcCwoNARW0cRlAkTibqhMag,,3.3,restaurant,7,"Bulevar Jovana Dučića 35, Novi Sad"
786,45.2511607,19.8023669,Pekara no 1,ChIJ_XvvRckRW0cRDUy0pRwCEBM,,4.5,restaurant,6,"Partizanskih baza 19, Novi Sad"
787,45.24626109999999,19.8004961,Grill PS Stefan,ChIJ0Sem_s0RW0cRc9GmTyBi8HA,,,restaurant,,"97 FUTOŠKI PUT, 21000, Novi Sad, Južno-bački okrug"
788,45.2460289,19.8003543,"Loft Factory, Coffee & Food Bar",ChIJezjvLXgRW0cRATtVinsMqQQ,2,4.6,restaurant,722,"Futoški put 93b, Novi Sad"
789,45.2525664,19.7969418,Ало,ChIJRTLuGMYRW0cRrZ3Ktrv42v4,2,4.3,restaurant,605,"Bate Brkića 24, Novi Sad"
790,45.2453823,19.7986517,Код Брке,ChIJAQCQ080RW0cRz2I3To3N5V4,2,4.5,restaurant,3047,"Futoški put 93b, Novi Sad"
791,45.2524959,19.8037694,Chili.rs,ChIJ___PeckRW0cRhjSNDYX_g3A,,,restaurant,,"Bulevar Jovana Dučića 1, Novi Sad"
792,45.2518633,19.8045766,"RESTO PIZZERIA ""COLOSSEUM""",ChIJw0zSSckRW0cRWBHFmS1BldA,2,4.3,restaurant,868,"Partizanskih baza 1, Novi Sad"
793,45.2545583,19.7963333,Novo 10,ChIJd-pYQuMRW0cRbIKM6nvxPyM,2,4.5,restaurant,390,"Seljačkih buna 10, Novi Sad"
794,45.25391870000001,19.8041087,Štrafta,ChIJ5ygo1csRW0cRctheGy-pbrg,,4.3,restaurant,735,"21000, Novi Sad, Juzno-backi county, Bulevar Slobodana Jovanovića 18, Novi Sad"
795,45.2507838,19.7905229,Palačinke Trgić 021,ChIJrXhxMXoRW0cRdlYsjRX_MBo,,4.4,restaurant,7,"Bulevar kneza Miloša 21, Novi Sad"
796,45.2535798,19.8049372,XL Grill,ChIJIWHojMkRW0cRndtVCQnYBcM,,4.3,restaurant,54,"Radomira Raše Radujkova 1, Novi Sad"
797,45.25358,19.8049662,RUSTIK,ChIJdfTLat4RW0cR_Rt7RszFeCg,,4.2,restaurant,34,"Radomira Raše Radujkova 1, Novi Sad"
798,45.250768,19.7904097,NS PAPRIKA,ChIJA0_rZcQRW0cRZdXJ0oOoCps,1,4.1,restaurant,143,"Bistrica, Novi Sad"
799,45.25235559999999,19.7909471,El Chileno Pizzeria,ChIJwfqqoeERW0cR_bogFva5kC8,,4.5,restaurant,28,"Seljačkih buna 95, Novi Sad"
800,45.25335229999999,19.8060235,Trojka 021,ChIJCbp3kPwRW0cRrohPdvjQ1wM,,4.7,restaurant,40,"Vladike Ćirića 5, Novi Sad"
801,45.25109929999999,19.78989649999999,DVA Slatkisa,ChIJsTZgGcURW0cRk-sTXVDUw2I,,4.4,restaurant,26,"Bulevar kneza Miloša 23, Novi Sad"
